,Code,Correlation1,Correlation10,Correlation11,Correlation12,Correlation2,Correlation3,Correlation4,Correlation5,Correlation6,Correlation7,Correlation8,Correlation9,Elevation,Latitude,Longitude,Name,Time,Unnamed: 0
0,CA002100200,0.2260590990629566,0.1890588962117312,0.3196861221595124,-0.2440054027232587,0.061921810354062766,0.275376600611539,0.5056260281380445,0.5266670905759551,0.4143013111116002,0.4970546562665194,0.29602994381581904,0.24902170713935656,660.0,60.1667,-134.7,CARCROSS,97 years,7.0
1,CA002100630,0.283090245189688,0.3061512545709287,0.17640078069146228,-0.14852951867690156,0.16759886666832466,0.3855767388376531,0.4130580382370543,0.38653651599709016,0.3101140248635374,0.4425102861056742,0.3538928675381997,0.1109330185283256,595.0,60.7667,-137.5833,HAINES_JUNCTION,77 years,16.0
2,CA002100700,0.2183689534903276,0.20550409785626692,0.11119961527608294,0.03696601678540428,0.15712102853231566,0.34896263121773996,0.416006077218142,0.30697520003246803,0.25370468046870936,0.4525484974819832,0.15520971929503366,0.2228937634574708,504.0,63.6167,-135.8667,MAYO_A,88 years,25.0
3,CA002100800,0.16287450088269698,-0.041285469676531114,0.5457692187983079,0.4089371185351952,0.1479622875671209,0.15913799163761988,0.6221404378990385,0.21652973981264306,0.19732564272626646,0.3877649908709169,0.2799526335147803,0.1271749440006775,250.0,67.5667,-139.8333,OLD_CROW_A,64 years,29.0
4,CA002100950,0.31676510516657275,0.06700138222491048,0.039131958370694817,0.2262911696731897,0.3071198991544857,0.4062367140842224,0.5230603681771179,0.3858950623421617,0.5011484219747409,0.4070129041778368,0.19748577774267292,0.26983942958070306,49.0,68.95,-137.2167,SHINGLE_POINT_A,64 years,36.0
5,CA002101100,0.1763176651405789,0.28436221110334625,0.2559318489233292,-0.12121284238181015,-0.05696340027490779,0.2976906449198603,0.35606377917780696,0.5210570672852266,0.08227581847943315,0.2362540504307996,0.4101433315068957,0.08164435840033475,705.0,60.1667,-132.7333,TESLIN_A,70 years,45.0
6,CA002101200,0.19465190084637024,0.2936044716449097,0.11985587307400825,0.004380334152671184,0.13721067933878275,0.15973073321440276,0.188400665830631,0.4604419572280315,0.16757045459098874,0.202788817248918,0.3778878078184508,0.12070934337954925,687.0,60.1167,-128.8167,WATSON_LAKE_A,76 years,48.0
7,CA002101300,0.1200696528273965,0.28627345420348205,0.1902421158945658,-0.06374440630025707,0.053495738125668026,0.294545851887779,0.4273869232432661,0.40133857679397206,0.2512055070287664,0.30111642432980706,0.2749789288891292,0.06345354121196986,706.0,60.7167,-135.0667,WHITEHORSE_A,79 years,50.0
8,CA002101400,0.19498505907636,0.34318312570039544,0.003185510333206234,0.10118352833564924,0.10204391453420664,0.3959125851187096,0.5646770899923941,0.4456810971760991,0.3589820268832423,0.3657029239875051,0.08629245378786245,0.030670946201780444,640.0,60.7167,-135.0333,WHITEHORSE_RIVERDALE,53 years,53.0
9,CA002101415,0.18214907920669748,0.3498559675748252,0.18627436612552184,-0.12231739088249073,0.025382840329101524,0.2745542418749932,0.36956604598898457,0.3808777773510521,0.1867273499818738,0.237934460208534,0.3307414554101845,0.11103803784036048,707.0,60.7333,-135.0833,WHITEHORSE_WSO,71 years,54.0
10,CA002200100,0.1871646366379384,0.15500700609340065,0.2892409759230083,0.21411302469830054,-0.10934188425840888,0.2347533170588573,0.37432505011423617,0.3625320035586089,0.13940770032590286,0.3949011192781952,0.1437052342235978,0.270502456098898,6.0,68.2167,-135.0,AKLAVIK_A,83 years,55.0
11,CA002200675,0.3765795346076761,0.3600370337510059,0.4297945543779169,0.3856634515840951,0.3469935577861066,0.3828462827394038,0.3882465148538638,0.3691996085442849,0.5206376073509318,0.5009180369819372,0.4789351375501917,0.5946996849897312,87.0,70.1667,-124.7167,CAPE_PARRY_A,64 years,56.0
12,CA002201500,0.19143596726965256,0.3444787244452668,0.21434076921417167,0.02197461150110998,-0.11077273374190234,0.1453238362651136,0.500734395875169,0.4045604610364485,0.4238005803843793,0.17992575490080973,0.2476668101828894,0.3350292062410394,42.0,66.25,-128.6333,FORT_GOOD_HOPE_2,81 years,63.0
13,CA002201600,0.14956816284304436,0.4132896982891919,-0.09869017868828764,-0.16505919284836698,-0.2681657381586323,0.06608193215914725,0.3857465090972902,0.4816950007988689,0.4529533977212791,0.2699137357499714,0.17280517351445526,0.4140937658089236,31.0,67.4333,-134.8833,FORT_MCPHERSON,85 years,66.0
14,CA002201700,0.09533984470079326,0.4652536321154935,0.20330775157206266,-0.0903749168844564,-0.05714021401493949,0.11284404047951295,0.5211474414497537,0.45084510206463,0.25492715633307755,0.25923808210606897,0.17556300758257135,0.3686894124416357,100.0,64.9167,-125.5667,TULITA_A,99 years,68.0
15,CA002201900,0.16526536535728925,0.2816990525483435,0.2729063174663973,0.1918516098979996,0.3188193535333481,0.2067593846293485,0.3824539559273637,0.44043202049692,0.6050011320877167,0.3959408953193442,0.2075088012314765,0.2771294051932296,166.0,62.7167,-109.1667,FORT_RELIANCE,65 years,71.0
16,CA002202000,0.04300333498893923,0.30949822516610503,0.27778093557438865,-0.13122716024455058,-0.12699148555287618,0.1730265469290945,0.2612788828720206,0.3535508428225787,0.3418882220660733,0.3141206968108849,0.31238692392036244,0.26326220668798583,160.0,61.1833,-113.6833,FORT_RESOLUTION_A,77 years,74.0
17,CA002202101,0.18378967783693012,0.23363066212610936,0.21196275064507905,0.16696682726353715,0.10391443536151318,0.2335757594393345,0.3600205757377568,0.2791480633334578,0.27007301181426924,0.22851604924674476,0.13604842779048906,0.24575077324846445,169.0,61.7667,-121.2333,FORT_SIMPSON_A,93 years,76.0
18,CA002202196,0.26488833130237016,0.17557509621446776,0.2484962343343675,0.08019613254739373,0.1996886440241168,0.17686380352653264,0.3484066151022233,0.3103465907558566,0.4442680628841472,0.33338295951754404,0.1143792580546692,0.2480722479252457,183.0,60.0,-111.9333,FORT_SMITH,91 years,79.0
19,CA002202198,0.20962051445293994,0.2404335250089183,0.3195562734233397,0.064067924754355,0.09516569165216546,0.25502819875931715,0.18404116387077374,0.09180180714073148,0.4375264026268811,0.28354849190517456,0.14956560616982364,0.21922652085405991,207.0,60.0,-111.8667,FORT_SMITH,76 years,80.0
20,CA002202200,0.22873980894870924,0.1942552768164519,0.2975186422952478,0.14025506891112782,0.1480740936585677,0.3072776982205132,0.2842406495000189,0.3702334180286491,0.4998358463531475,0.2914252035302141,0.2712105816544717,0.21465492213170345,205.0,60.0167,-111.9667,FORT_SMITH_A,90 years,81.0
21,CA002202570,0.3240930464737365,0.2502140689649551,0.26761541464568217,0.4220359264429769,0.2404566523701753,0.403997234019244,0.5505202035565848,0.18413804673024545,0.3197388783633198,0.4606267654764579,0.2612274680643234,0.32910742986613845,68.0,68.3,-133.4833,INUVIK_A,64 years,89.0
22,CA002202800,0.09090806754056252,0.15811549813415168,0.005619486893327898,0.08703873320070148,-0.11319000088392027,0.2302781186740473,0.491379990292685,0.3305089170669554,0.26536397032138803,0.3204306069899548,0.1558407611001491,0.21832496377675906,73.0,65.2833,-126.8,NORMAN_WELLS_A,70 years,95.0
23,CA002202801,0.1000052865101768,0.10063762715599704,0.033992668617728025,0.1674852654759826,-0.005107139595334639,0.2591009803871242,0.4650715293022469,0.2382381611443907,0.2951465946192795,0.3407296107821104,0.2227396887270255,0.1776205769774898,73.0,65.2833,-126.8,NORMAN_WELLS,76 years,96.0
24,CA002204000,0.0332590615490774,0.05289331477972144,-0.015623896154551162,-0.1674607601507137,-0.13618902667393362,0.15215822340802376,0.5286641608892639,0.4637429844401288,0.19875648319527228,0.2202242764178523,0.15403872577748107,0.11426037445915994,150.0,63.2167,-123.4333,WRIGLEY_A,64 years,110.0
25,CA002204100,0.15950854783518692,0.28730508804506616,0.2888426757633787,0.07838310456160248,0.2288166307374644,0.21844801851422874,0.3943503700301312,0.4467797385127817,0.4579041293226966,0.28981658531875265,0.27292273397188754,0.1931068455607577,206.0,62.4667,-114.4333,YELLOWKNIFE_A,70 years,111.0
26,CA002204200,0.09945100232536493,0.3635592610833428,0.3022021329457166,-0.14187860363321156,0.01150262129828928,0.10362710195637986,0.22799578898115735,0.42597165435142,0.4591414345460334,0.4755851370539906,0.3073206764253197,0.303581576812445,159.0,62.6667,-114.25,YELLOWKNIFE_HYDRO,57 years,114.0
27,CA002204300,0.6811855277282954,0.7039732475209741,0.5602670608245418,0.5947627426391042,0.8249008326997812,0.9075498306358932,0.91828352011926,0.9313406057244308,0.9570531548804244,0.9354435002897394,0.8959146505782969,0.8019842619826623,204.0,61.25,-123.75,YOHIN,64 years,115.0
28,CA002300500,0.18026952572625884,0.4589741883829373,0.30870998645385705,0.3149696445127497,0.18582054511571056,0.15582098628964866,0.2156997764513438,0.5634758378549544,0.5944647790981072,0.430510498749538,0.3428482470879069,0.5220951061038405,19.0,64.3,-96.0833,BAKER_LAKE_A,75 years,123.0
29,CA002300551,0.816664170791955,0.788678125357846,0.7524768120268619,0.4786065568942906,0.8056691827429792,0.9354468989652308,0.9624827295614876,0.8943945405440844,0.7451021042871979,0.6758528650703263,0.7162526746582484,0.7862366807122526,5.0,66.8333,-108.0167,BATHURST_INLET,64 years,125.0
30,CA002300700,0.035451783584731125,0.4402315651529571,0.2564456700001497,-0.07519006578161637,0.1501495362171301,0.022034878163261943,0.28329794822220405,0.4792335698465305,0.5738667549790168,0.35302098426681816,0.3963808940768669,0.4319012597652525,59.0,63.3333,-90.7167,CHESTERFIELD,60 years,126.0
31,CA002300707,0.08119896004373403,0.615821580361657,0.27593620611820674,0.107815314717616,0.097365454464936,0.12642550715765544,0.2277767836651091,0.5729691458143437,0.7106326646344777,0.5106379894094146,0.4476253441936344,0.4959419145678301,10.0,63.35,-90.7333,CHESTERFIELD_INLET_A,82 years,127.0
32,CA002300900,0.13587231417740936,0.281128288943612,0.396748120579979,0.0787458353842217,0.19191545753526532,0.17181310517902573,0.2305315512279533,0.3140613463898244,0.6093044502223356,0.2569184980834701,0.21781171583956527,0.3752329704495736,9.0,67.8333,-115.1167,COPPERMINE,74 years,130.0
33,CA002300902,0.19215208439744472,0.2086704499711479,0.4662807098387336,0.3245652414109901,0.2485410013991555,0.2428317636415949,0.11793146412224242,0.31762886200964485,0.43616254514000813,0.35984637899782795,0.36888894661413546,0.26390324663142123,23.0,67.8167,-115.15,KUGLUKTUK_A,77 years,131.0
34,CA002301000,0.2327327269719387,0.4949279574774684,0.4026102039335349,0.1902792751098187,0.10170327968691216,0.24487329797324245,0.09389536984250024,0.5097922902803068,0.506409465205164,0.5299143235839043,0.4566717286838876,0.5069655892035754,62.0,64.2,-83.3667,CORAL_HARBOUR_A,88 years,134.0
35,CA002301102,0.11223221544974804,0.5452979977463229,0.24410804514910686,0.5585587244258173,0.15616466673901214,0.5052199867881946,0.4348880199451303,0.3252599184610595,0.3990590921488796,0.4230417047793862,0.19963260934744345,0.3612952393547376,353.0,61.1333,-100.8833,ENNADAI_LAKE_AUT,64 years,136.0
36,CA002302370,0.2274955567811864,0.5245012733210499,0.5026169792217988,0.3397962694945572,0.6113819949268644,0.09308773222807257,0.00845875461985358,0.5501687467774594,0.28052996148432596,0.2550557974367898,0.6412263997229418,0.5757861999361361,36.0,68.3167,-100.0833,HAT_ISLAND,62 years,141.0
37,CA002303685,0.035347583357010014,0.5258323608866052,0.5657244012095971,0.4225494170619055,0.1437327128713195,0.014273545754140169,0.1515525056868304,0.47916540291602,0.4307450400215104,0.2932508733480844,0.4532975692599868,0.5402945890883788,43.0,68.8167,-93.4333,SHEPHERD_BAY_A,64 years,150.0
38,CA002400300,-0.15974454844272265,0.0934275421906512,0.16406909821341295,0.14769522350835174,0.07376683186217525,0.2298904145240491,0.22206159766277805,0.1552882917415608,0.15449714178831486,0.18796018601751815,0.17532093349844266,0.24161121820324255,30.0,82.5167,-62.2833,ALERT,56 years,154.0
39,CA002400306,-0.07296076934464607,0.09497225048437866,0.1924206653036316,0.2034312418103737,0.004656643940448838,0.11166305441052507,0.1117765107571916,0.2043969730844868,0.1951545085271226,0.2208667224962133,0.20833635563276015,0.06396446541010767,65.0,82.5,-62.3333,ALERT_UA,56 years,156.0
40,CA002400400,0.37653665362083055,0.14213808499487926,0.4811963058973083,-0.2314175905460984,0.19297709500070329,0.07795986234548015,-0.12403592042349768,0.3592193149422402,0.3860928044604188,0.3954791772467859,0.2985908749040129,0.16762085088764128,22.0,73.0333,-85.15,ARCTIC_BAY,65 years,157.0
41,CA002400565,0.4742648629748144,0.492290515057208,0.4945621721465144,0.3008619386271908,0.07532686955007331,0.24028011394830484,0.183160233595376,0.4150180351318463,0.4370612780430075,0.423999122408413,0.6470701721203126,0.7283632680392117,376.0,63.3333,-64.15,BREVOORT_ISLAND,62 years,159.0
42,CA002400570,0.277967626441297,0.6493724799812858,0.3262578884474531,0.2662983092711479,0.09560327119756744,0.15639738847234935,0.0707336530067766,0.24601520637390645,0.5256563068035754,0.4421648929305096,0.4293037830065787,0.3325542348967929,584.0,67.5333,-63.7833,FOX_FIVE,63 years,160.0
43,CA002400600,0.2102530546267263,0.28860518316251466,0.3714022632923106,0.2138541239391714,0.17234888289849173,0.099946604355528,0.1492267938484284,0.4226895455374245,0.5409294946650811,0.4540956521805274,0.4749179602191265,0.4733425236774004,31.0,69.1,-105.1333,CAMBRIDGE_BAY_A,92 years,165.0
44,CA002400602,0.17693239146588616,0.3012558722677662,0.34815820320378144,0.30297987485834976,0.13341962736457988,0.0754267634102944,0.09241286269956583,0.4595236724536149,0.5321206185773049,0.4551975333469652,0.5510762859464674,0.4646753716104909,19.0,69.1,-105.1333,CAMBRIDGE_BAY_GSN,80 years,166.0
45,CA002400635,0.371389859149997,0.683422332259804,0.5177843138593807,0.3031702402846645,0.2690925312724739,0.35651018062554146,0.2617736526031082,0.4855361271035594,0.31092142973740705,0.3079248138112303,0.4537002496068198,0.5297968686076053,48.0,64.2333,-76.5333,CAPE_DORSET_A,58 years,168.0
46,CA002400650,0.464954088679206,0.5143638205268859,0.3768722626276152,0.3434398204415233,0.5092836118883701,0.4041832940731432,0.17184404193866054,0.3434301856375401,0.5611900287180389,0.4384283156956471,0.516301907072881,0.2664865101348197,725.0,66.65,-61.3833,CAPE_DYER,63 years,171.0
47,CA002400654,0.4863782487631527,0.5716512066620988,0.26413925254669274,0.11326456037661838,0.23057837224234606,0.16186406903584233,-0.02526610521339669,0.3185122671596695,0.5862018336277932,0.20620825066981294,0.2698467926545391,0.2646479677093544,393.0,66.5833,-61.6167,CAPE_DYER_A,65 years,172.0
48,CA002400660,0.3515443125635821,0.667642586782286,0.3848441060644331,0.2780091683561855,0.14632496304268955,0.2675916719723541,0.09220248795442412,0.2297914936204838,0.4024805957012953,0.3869422806216247,0.4545195667693508,0.451008178602316,390.0,68.4667,-66.8167,CAPE_HOOPER,64 years,173.0
49,CA002400800,0.2951201739665637,0.4779742538911493,0.34889249384814225,0.18353219988631594,0.2431750918436075,0.017913487562381616,-0.010245617337023298,0.24105160753965196,0.6027934361595678,0.4166244808642094,0.5347459971848387,0.3667905917878373,27.0,70.4833,-68.5167,CLYDE_A,75 years,175.0
50,CA002401030,0.34489907295463323,0.5307546962174045,0.33726990662734097,0.19585041737192865,0.08972537036306727,0.2408771933918115,0.0061278689253733,0.3757938184162281,0.5784150139593958,0.3650785118578875,0.3750648903136275,0.5056265168870927,527.0,68.65,-71.1667,DEWAR_LAKES,63 years,179.0
51,CA002401200,0.08760864271592693,0.24891701944172945,0.3646800954126514,0.18566215205046627,0.09426975826849752,0.29431902110070834,0.28541134751335806,0.4438849928660715,0.5998884092251191,0.38973105516335854,0.4230461342834987,0.4516344914083657,10.0,79.9833,-85.9333,EUREKA,74 years,180.0
52,CA002402350,0.08646544716011277,0.4549052645530375,0.2816451347865014,0.2878519615003888,0.08312985540674622,0.13650788627208804,0.13346854183189166,0.3678732693826901,0.4777812199579208,0.37407228062006703,0.5251424649131583,0.6203443664198118,9.0,68.7833,-81.25,HALL_BEACH_A,64 years,184.0
53,CA002402354,0.3386330764945392,-0.01146152009459015,0.1346810196249153,-0.04768293551318422,-0.16646489476584836,-0.11332657321506795,-0.01863839742336301,0.1020365209661324,0.22076273051497045,0.16283724654227602,0.4305051907848281,0.525926157181345,9.0,68.7833,-81.25,HALL_BEACH,60 years,186.0
54,CA002402590,0.3343997668416791,0.4818301458621774,0.3002222152542255,0.16784846932697334,0.13003435646826786,0.15196286631216854,0.21924806004649205,0.36709252011162535,0.4218330217144713,0.3486860275996946,0.4374460216827885,0.4303090115117321,34.0,63.75,-68.55,IQALUIT_A,64 years,189.0
55,CA002402594,0.2815900271228329,0.537717122648532,0.3662938104841559,0.31172213775727714,0.3540102457940679,0.3720336998419373,0.3875834530046452,0.3430297613108812,0.31366782633638,0.32866720646673264,0.35214806555207234,0.44043999820252416,22.0,63.75,-68.55,IQALUIT_UA,79 years,191.0
56,CA002402600,0.08091301601553484,0.07034375686846954,0.3958025596556944,0.14503345033348206,0.274912816912663,0.13616537624649,0.3973192725682705,0.35405313366868457,0.6145254841222471,0.4305768709069449,0.11930016427857502,0.4563734487054322,25.0,78.7833,-103.5333,ISACHSEN,65 years,192.0
57,CA002402604,0.2717306014201034,0.34653109930456666,0.5122891423346485,0.24932431765071425,0.044117720945664386,0.05180490274388661,0.3197432910373545,0.35025843385098915,0.6454270977427322,0.4239859125060278,0.16790091576736724,0.4353166408283855,58.0,78.8,-103.55,ISACHSEN_AUT,73 years,193.0
58,CA002402684,0.31295791100954623,0.5322002839351765,0.4091459480886501,0.17866340707885814,0.2044470258905036,0.2267074407550885,0.1813675898796795,0.2800090653591575,0.5785057097904539,0.3308120097153479,0.40804791796650064,0.5890912657679921,161.0,68.9,-75.1333,LONGSTAFF_BLUFF,63 years,195.0
59,CA002403050,0.18017210713748807,0.3594784299560281,0.34757627305902244,0.20756201542162425,0.4581426379359183,0.4515559693423565,-0.16346727871510844,0.6452268652330119,0.43025485103296207,0.6761780930039879,0.4028131534347352,0.5681173209429989,15.0,66.1333,-65.7333,PANGNIRTUNG,90 years,201.0
60,CA002403450,-0.08258315945582201,0.4599119170004944,0.5987768238417323,0.2716407248579217,0.7539705112522774,0.3859660104844327,0.471507711882096,0.3973361366101365,0.1720349349026011,0.2347131365821326,0.3038803551253966,0.4335621085620614,15.0,75.3833,-105.7167,REA_POINT,51 years,207.0
61,CA002403500,0.09874501544500497,0.3422788930658669,0.3837317255270526,0.30360942459920554,0.1315547097455679,0.15918007907159176,0.14477155968483754,0.32414613329608577,0.5365067761953535,0.44970868672589626,0.423588973184278,0.4962618101897148,68.0,74.7167,-94.9667,RESOLUTE_CARS,74 years,209.0
62,CA002403505,0.11925464975702955,0.3279644515604562,0.2825169090321117,0.1654805664536641,0.12820616204900165,0.14698930360509066,0.0923792780345526,0.30832299838888233,0.5427805803113694,0.4332721333102133,0.4209923206324835,0.4895935598995992,30.0,74.7167,-94.9833,RESOLUTE_CS,73 years,210.0
63,CA002403602,0.3963631781068,0.5837454993630313,0.5708766287902738,0.26183717307486104,0.4377182982541713,0.3725641518709496,0.4428522330684755,0.6035640059506395,0.22327393636438125,0.6878203423803233,0.18787641218646575,0.6437968748677682,369.0,61.6,-64.6333,RESOLUTION_ISLAND,90 years,212.0
64,CA002403625,0.22212043738604165,0.5709607935155812,0.5192708732265692,0.060593903711363625,-0.050967123197124466,0.3080110877118372,0.21415674894728376,0.5458067667789154,0.5625674546730434,0.4805709417702938,0.6983192131725134,0.6520633819073277,41.0,69.0833,-79.0333,ROWLEY_ISLAND,64 years,213.0
65,CA002502700,0.5658404269948037,0.7557487751035024,0.6938522049942375,0.08554263343460843,0.6754750052406534,0.7718523980883583,0.8464010810348548,0.826044044725139,0.8965678287433788,0.8274340698006715,0.8851280107283903,0.7418770290354172,12.0,76.2333,-119.3333,MOULD_BAY_A,65 years,222.0
66,CA002503650,0.08321760930631332,0.07909739917859628,0.2800796224056883,0.2646538910335989,0.20111908477253496,0.3828698480238646,0.43669850533517307,0.4890828047746172,0.30952197630481004,0.3674367626395985,0.36063582976317493,0.285613894385403,86.0,72.0,-125.2667,SACHS_HARBOUR_A,53 years,224.0
67,CAXLT660207,0.3458917801079829,0.31002155467612696,0.22094674093572986,0.15608105298176486,0.08782722063815962,0.0942598450953864,0.011541633398816935,0.2718551614345145,0.4594709006553443,0.3614525719210023,0.3773513217467285,0.2580370770331278,0.0,63.8,-68.6,FROBISHER_BAY,59 years,229.0
68,FI000002401,0.425575888388764,0.3945083354062057,0.20366167327212653,0.23134943596280225,0.31045113912018546,0.1396255567568864,0.16507020103447215,0.008984170740401656,0.1795081809521997,0.4121966368611343,0.4720926421697658,0.16932962185217612,139.0,62.4019,25.6783,JYVASKYLA_LENTOASEMA,70 years,233.0
69,FI000002963,0.4724672776965781,0.3839562110166781,0.2508606060664437,0.2283893358673664,0.4316825329688292,0.2941658720428253,0.12341993653668015,0.02902917965380601,0.2408197137313888,0.4960351988026511,0.4767174225805873,0.18771558705200436,104.0,60.8139,23.5006,JOKIOINEN_JOKIOISTEN_OBSERVATO,64 years,234.0
70,FIE00007672,0.4704346477860015,0.3701132830615392,0.13490659731331858,0.21266932339996827,0.3647460986462212,0.0198685125675123,0.32393635841137297,-0.0029852510690834056,0.4056284883814886,0.32640625437315,0.3327077047465538,0.12914183383508265,8.0,65.0192,24.7314,HAILUOTO_OJAKYLA,55 years,236.0
71,FIE00141805,0.6662909873779498,0.4610925722988505,0.4371107398739276,0.3107961052296909,0.5170938580868271,0.45009790219409795,0.12865130676797992,0.10251067783074896,0.14839000197941635,0.5330065066803675,0.5130108445778346,0.1944339430248317,5.0,60.1244,19.9067,JOMALA_MAARIANHAMINAN_LENTOASE,62 years,238.0
72,FIE00141819,0.8688499049256273,0.5140048943025028,0.6449972481991681,0.3256910345928232,0.5824697924061851,0.5165308659223427,0.3579347103432408,0.5120263631649296,0.4097039220832604,0.481163092423695,0.7118204933780877,0.5473533831312424,3.0,60.3,19.1331,MARKET_STORBY,51 years,239.0
73,FIE00141855,0.7037704368188213,0.4324022349188434,0.4998734004995533,0.2762024068814368,0.5030669295124709,0.3771072212844546,0.17699687532850067,0.19422418538038252,0.276159835462042,0.5066694671038304,0.5588751597586195,0.165778825117991,11.0,60.1781,19.9894,JOMALA_JOMALABY,59 years,240.0
74,FIE00141864,0.7838630152676185,0.5222020422037854,0.6143408352923078,0.129097362840627,0.6310421390373998,0.5707990172597898,0.3745396292329421,0.49535579510485,0.20358654249269234,0.4579733743081391,0.6701509343922797,0.3927319340477094,3.0,60.3008,19.135,HAMMARLAND_MARKET,58 years,241.0
75,FIE00141884,0.5049914464732552,0.5939091221568711,0.496987272780071,0.05851874404243159,0.2437121768864508,0.20526119698575396,-0.22023779949055652,0.2064962459830356,0.3498302647300121,0.4889966162476073,0.3834331378309162,0.2592732302238672,5.0,60.3939,21.9464,NAANTALI_RAULA,55 years,243.0
76,FIE00141895,0.6475579908780623,0.3695247815441122,0.5116000036251398,0.21708693637389934,0.31519224337115603,0.4017726437319032,0.13968699939896045,0.3700141269060463,0.3200539690197817,0.4681110651629909,0.4587629235784378,-0.06831252706819994,9.0,60.1542,19.8753,JOMALA_SODERSUNDA,52 years,245.0
77,FIE00141935,0.51593694754308,0.3717374266127269,0.3075170779569104,0.2054433801774564,0.4487650504851995,0.3381608902679599,0.04911628363802762,0.03939310306972853,0.2800000725957405,0.5020091641130677,0.4008282641628571,0.17924109853855638,6.0,60.3867,22.5544,KAARINA_YLTOINEN,62 years,247.0
78,FIE00141940,0.3420706811932655,0.4622188632252264,0.3025482879793823,0.25541023394046825,0.2856873771788258,0.10368909312872523,-0.19935644799176594,0.19069874737240994,0.3510008423534795,0.6942654105570688,0.5399878164393168,0.2209925883326088,26.0,60.4167,22.4331,PIIKKIO_TUORLA,55 years,248.0
79,FIE00141945,0.5080527308703608,0.5155746444166502,0.3156899027446372,0.11429832548155867,0.4418520942961093,0.1569908125497316,-0.002500297105019213,0.16165574572832306,0.3429425574914635,0.5233774577582326,0.4125946350194741,0.18689058061867367,16.0,60.4667,22.0331,NAANTALI_KESKUSTA,55 years,249.0
80,FIE00141974,0.3270432976471412,0.4219597798288319,0.31566582485458833,0.3125045970277967,-0.049934075727365024,0.13518506126328472,-0.2946347028540207,0.20459715238595733,0.5176841526511947,0.6321859803821652,0.4253815419936387,0.3573551827700225,28.0,60.3831,22.55,PIIKKIO_YLTOINEN_VERTAILUAS,54 years,250.0
81,FIE00142010,0.3477061188086046,0.46329923931437106,0.4415317093185364,0.1114141594486163,0.43966294654953625,0.26247670581388144,0.2374112749563269,0.19029536695147245,0.16462588020588126,0.5264868726323725,0.4653673684848999,0.206794735246676,8.0,60.4542,22.1817,TURKU_ARTUKAINEN,62 years,254.0
82,FIE00142020,0.5323640735061974,0.3425633672251529,0.17160690500759093,0.09067449065311876,0.43129284208063295,0.16807274674545214,0.09114051835668853,-0.10424404617358678,0.3226443133943099,0.43659777896964985,0.30890687596430705,0.17485814947029268,84.0,60.4,23.7667,SUOMUSJARVI_KETTULA,53 years,256.0
83,FIE00142035,0.5018082958521345,0.3345563412477189,0.27323011365703026,0.2341343160474319,0.4369047445636321,0.2651987758656041,0.07215153901999825,-0.011643105160490459,0.2090652368830853,0.5073496179303163,0.4011102603113266,0.15362686485084778,3.0,60.3733,23.1158,SALO_KARKKA,62 years,258.0
84,FIE00142055,0.5161518843395251,0.3450751027558211,0.20520045296511316,0.21968048180004468,0.3921049673115936,0.16908820353967868,0.14478819939919774,-0.0718073983574488,0.2348681537040997,0.48303008835624395,0.424173955402115,0.19521310611052686,69.0,60.3239,23.71,SALO_SUOMUSJARVI,53 years,259.0
85,FIE00142101,0.4936672747648031,0.5102531615466696,0.2936482866813153,0.3633554339966791,0.5148980225168396,0.4154048701930517,0.19663402352140505,-0.02261939554276229,0.31546471037868795,0.6541810487670239,0.5744837754329863,0.5027869825869312,47.0,60.2,24.9167,HELSINKI_ILMALA,62 years,264.0
86,FIE00142106,0.4875099620851405,0.4128461447110097,0.2729114386480188,0.21294353843322025,0.4616471128893432,0.28263919521109043,0.11313791496334352,0.006917375917660588,0.2023160461329203,0.4582474482989863,0.42967185090631177,0.2160891322394912,37.0,60.2439,24.0525,LOHJA_PORLA,62 years,265.0
87,FIE00142116,0.4473978945027962,0.3368148097838203,0.2493023797010452,0.18934435632975946,0.4341715848772232,0.20548709728962586,0.059615616618111975,-0.03158870427569288,0.2703183459884122,0.5049640767394034,0.3986416763818441,0.2032906634699092,42.0,60.4183,24.4017,VIHTI_MAASOJA,62 years,267.0
88,FIE00142230,0.4975628913536939,0.472082813738572,0.15353328742172334,0.2986701687110914,0.3015824174321167,0.2952409839209716,0.18144743080622835,0.017786591590321643,0.11538149725767845,0.5556761547248884,0.4915102940055477,0.3667486446382397,31.0,60.2075,24.7442,ESPOO_SEPANKYLA,56 years,271.0
89,FIE00142256,0.5041583561301055,0.4128655505388633,0.10123914252716243,0.11541717477229907,0.33584134869123505,0.17556893894443862,0.13726136291411548,0.12670359300267986,0.5075015927756144,0.5289199056946676,0.5972763423370427,0.487923915557649,20.0,60.2831,25.0667,VANTAA_TIKKURILA,55 years,276.0
90,FIE00142261,0.4965772433494292,0.27321739177615345,0.04617648227046473,0.16030482207487695,0.4170482777726655,0.1888672508144116,0.0533565918615824,-0.04608209460501179,0.4608399457173474,0.3996221799629841,0.3086269073103567,0.2610223169819052,49.0,60.3667,24.9831,TUUSULA_RUOTSINKYLA,55 years,277.0
91,FIE00142266,0.5092973959731231,0.387408197489067,0.11402177781570585,0.10273865291685504,0.4469741846771628,0.22489169899794526,0.05517117676685975,-0.13876563874375056,0.3431002603976445,0.4624389473965394,0.3645896060374871,0.2138692393504735,17.0,60.4056,25.6589,PORVOO_JERNBOLE,55 years,278.0
92,FIE00142271,0.4752358186874217,0.30566322532332696,0.059034843738955435,0.11375629929128912,0.4024431937048246,0.2218144645882867,-0.0473634241117173,0.044377888325178194,0.41551821871776223,0.4844667213548881,0.3619032618449887,0.3053698935592703,45.0,60.4167,25.0331,TUUSULA_HYRYLA,55 years,279.0
93,FIE00142326,0.5175491003200703,0.26720316810200273,0.09532218030788613,0.00888419896093367,0.3603978835169351,0.2427453539616428,0.10928039517143864,-0.04082116444065742,0.5003694237072543,0.4139279852412207,0.3063915491310809,0.3171010822656463,10.0,60.3681,25.6267,PORVOO_LEHTIMAKI,55 years,285.0
94,FIE00142331,0.5076009565998203,0.3617278307664021,0.3305095510473032,0.2337530804341549,0.4605380155342914,0.43513507431236814,0.2870403874262069,0.1025803239288815,0.3931965226289264,0.5927148536033754,0.5462332242371094,0.3207276266171985,22.0,60.3914,25.6114,PORVOO_HARABACKA,62 years,286.0
95,FIE00142341,0.5190431505602616,0.489428968883209,0.3210730085214896,0.20210704903337506,0.5585921352925817,0.5109356124600459,0.3384163808689633,0.024737169095923786,0.19702776017362947,0.4765749962623003,0.33291150844508177,0.3061994978790987,9.0,60.3753,26.9617,KOTKA_RANKKI,62 years,287.0
96,FIE00142390,0.46713805141571096,0.5336496990492565,0.10912683769841787,0.17772087777141776,0.4227322193522285,0.42904516323379627,0.16986349949511842,0.0036045967556997843,0.3446265974297002,0.6796705334908967,0.5172250527807716,0.4766094966400874,23.0,60.4542,26.9528,KOTKA_POOKINMAKI,55 years,292.0
97,FIE00142411,0.5903784910892903,0.3958107018752238,0.22226778793577154,0.2538840975335536,0.4327535027673382,0.21315194346883046,-0.018749162152382964,-0.08891255827149158,0.3086161222821792,0.5069707983926115,0.3904403915707539,0.1832004740220708,13.0,61.4656,21.7967,PORI_PORIN_LENTOASEMA,62 years,295.0
98,FIE00142416,0.6598013288532512,0.4145872813262588,0.1648145666911666,0.1175214559101907,0.4826555423177173,0.4814863990897146,0.07819736469967603,0.04760466212320905,0.39872195339730027,0.4042363923574953,0.2790036439364557,0.2387213368689095,17.0,61.1392,21.3681,RAUMA_KUUSKAJASKARI,55 years,296.0
99,FIE00142426,0.6157413924701035,0.5753431421010556,0.20047469662078155,0.0534359390493668,0.4643428073736599,0.2550389116439537,-0.018383825996863203,0.08371684258507499,0.4883936050377608,0.4711761476191458,0.3920918305756162,0.1962269889404348,5.0,61.1167,21.4667,RAUMA_KPKI,55 years,298.0
100,FIE00142495,0.565152224912624,0.5517474580928666,0.3825030015344783,0.3304853690791785,0.6424166090095834,0.5833266572108377,0.16957464931960814,0.00017715128471963766,-0.04060572742507867,0.459903713669441,0.5054410262091634,0.20749314037834535,4.0,61.1444,21.3058,RAUMA_KYLMAPIHLAJA,62 years,301.0
101,FIE00142511,0.5034999874174327,0.3762823704737783,0.2529971150302597,0.20501153269202355,0.4409726423695053,0.2757664923066114,0.08007027322877404,0.10959907076332913,0.212622515655028,0.4064636611047566,0.4079849876434759,0.13182004463224498,49.0,60.5153,22.2775,TURKU_TURUN_LENTOASEMA,71 years,303.0
102,FIE00142526,0.5653606301641388,0.32952015637222365,0.1201538074998291,0.15720459302224696,0.344084861539685,0.16611349848068954,0.0362242929870367,0.01168695105109582,0.30519937091909954,0.4714058328294822,0.35716631273527416,0.12745883484168594,37.0,61.2706,22.2519,KOKEMAKI_PEIPOHJA_HYRKOLA,55 years,305.0
103,FIE00142631,0.3234160537178069,0.3724303715167372,0.3644505641797177,0.2833797335604631,0.5591545575530579,0.3131092876470621,0.07870217164605282,0.12537555580237572,0.26840113635970103,0.7175968097813333,0.5463015508614875,0.19909432173127115,38.0,61.2528,22.3494,KOKEMAKI_TULKKILA,62 years,306.0
104,FIE00142641,0.4898731819864962,0.3927560029960233,0.14189586544137553,0.16529375423473547,0.3072817590854537,0.10345307550172493,0.0019863596443947386,-0.03898023744709974,0.19179808297924,0.4924329260188844,0.3910760258306237,0.18441076433047254,85.0,61.4667,23.75,TAMPERE_HARMALA_1,55 years,307.0
105,FIE00142746,0.5059741658521985,0.5624276259677579,0.2551577544920677,0.13504637027529562,0.3411089086840146,0.11957108547966233,0.04404677562908592,0.030981393932431607,0.3665408621961527,0.6015973518232003,0.3591525196304551,0.4047602944397897,92.0,61.0,24.45,HAMEENLINNA_KAURIALA,55 years,312.0
106,FIE00142751,0.4359406111820871,0.3696515949685169,0.2463933210716441,0.2056543932281436,0.4319273467679717,0.21374597756699015,0.09186969094497696,0.01603475501981526,0.3318496718139801,0.5059584533464133,0.4834670753582584,0.24281270463732715,86.0,60.5956,24.8064,HYVINKAA_HYVINKAANKYLA,62 years,313.0
107,FIE00142756,0.4839238739719191,0.35637939386675177,0.16459450469639875,0.17210035123112394,0.3027344839691473,0.13482180007914138,0.07970554191655146,0.015611420405012585,0.2798008647981147,0.4782895706956775,0.4030531124601432,0.17553269334521296,88.0,61.0667,24.2331,HATTULA_LETEENSUO,55 years,314.0
108,FIE00142851,0.1356749971390364,0.5984295994493825,0.4694210867964453,0.2353881682681121,0.28768912347593817,0.17217085748851002,0.1973460609564361,0.3104785798889514,0.1370610634488054,0.6346641554843612,0.635514157752621,0.13432598436599438,87.0,60.9992,24.4944,HAMEENLINNA_KATINEN,62 years,318.0
109,FIE00142861,0.3950506779419126,0.3237943810929448,0.2202001844099364,0.1921521694800568,0.376740678068206,0.14817446649291605,0.05322161016702337,-0.027564690809680374,0.2323748271760747,0.4639047503861064,0.4380399226492749,0.16543530172918558,78.0,60.9617,25.6342,LAHTI_LAUNE,58 years,319.0
110,FIE00142871,0.40875666400684574,0.3790038238219661,0.2766215583513893,0.2378068426162931,0.3984560717929189,0.1836629294939936,0.10156796701446544,-0.0692386056789544,0.14518331400714876,0.3909234181661127,0.4164830657064887,0.22005177841599255,125.0,61.0539,25.0419,HAMEENLINNA_LAMMI_PAPPILA,58 years,321.0
111,FIE00142876,0.5504283570228677,0.06341886068941491,0.32649396406404585,-0.0960468349465376,0.22814079042796034,-0.20988943917241706,0.2677784164567499,-0.00761625195310613,0.3850527233875104,0.5770067220480635,0.4227844444470408,0.31644031475617856,127.0,61.1831,25.0831,LAMMI_EVO,55 years,322.0
112,FIE00142916,0.3173105629133404,0.4869105961105654,0.25573886445356725,0.1361999293104157,0.3011469611758503,0.2693730004874352,0.34821036125377186,-0.06367122393283857,0.2827020449273581,0.5447185487639836,0.452108105045597,0.6645691321748916,108.0,61.0831,25.2331,KOSKI_HL_HYRKKALA,51 years,324.0
113,FIE00142921,0.4885407820009446,0.3692366881708792,0.1985879342033785,0.12541461000651552,0.3044600582302228,0.015446636636636188,0.0381202167559136,-0.059869013848278474,0.39240728237809536,0.4781916044679763,0.42278138339390936,0.2098307010104813,147.0,61.15,25.25,LAMMI_VESTOLA,55 years,325.0
114,FIE00142991,0.4881163325514544,0.1821841997593158,0.24444322256512566,0.07834063198751824,0.15030446145630022,-0.12195107038515862,0.21757399000780975,0.05051944181600315,0.4419984334694372,0.5442552397143934,0.5430875669177208,0.370512072909066,132.0,61.2,25.1331,LAMMI_EVO,55 years,326.0
115,FIE00142995,0.6306167661640192,0.41725024232040414,0.006067499056127964,0.3797809358249548,0.2891743362078075,-0.16309094347945402,0.05596479236332228,-0.2958946214324384,-0.092950559946907,0.4278282280964186,-0.12810761927068925,-0.16414403693209342,87.0,60.9167,25.5831,HOLLOLA_ALA_OKEROINEN,53 years,327.0
116,FIE00143011,0.5458955208382986,0.36946392027459385,0.2981013049452361,0.05884168523544329,0.3609289387141307,0.12548128954921747,0.16171209224568878,-0.04889430767274617,0.38457982770897337,0.5362826091559555,0.4244450919047113,0.2243412605312495,129.0,61.1828,25.04,HAMEENLINNA_LAMMI_ISO_EVO,55 years,329.0
117,FIE00143015,0.3821847738705317,0.4854201998302133,0.3404097439247173,0.2313966742061367,0.3750102257378427,0.3248345674039336,0.1856559752534397,0.031226609371772424,0.18154302459654476,0.3380411430398127,0.532866773855296,0.4219156118841358,80.0,61.265,25.5231,ASIKKALA_PULKKILANHARJU,54 years,330.0
118,FIE00143035,0.42773118561218987,0.15570005365210526,0.3866434955099419,0.1378287938967828,0.30014664470602603,0.022087020636371524,0.32689258126067144,0.15442316049598334,0.2781153121259511,0.6655024109861396,0.583181341224283,0.3210875083195322,133.0,61.2164,25.1358,HAMEENLINNA_LAMMI_EVO,61 years,332.0
119,FIE00143041,0.3936084747211536,0.38645516193327706,0.2288710876628169,0.2018586751147321,0.4147591361439653,0.2009202258301672,0.1702477666297963,-0.014826719749520125,0.2305039147191453,0.4290617172890397,0.4374950449777225,0.2512402976205653,99.0,60.8903,26.9442,KOUVOLA_UTTI_LENTOPORTINTIE,62 years,333.0
120,FIE00143056,0.42897692407349786,0.41588134477270094,0.2614775510493406,0.21709738939298304,0.4628459383472938,0.2929132320320318,0.2296441960196573,0.0660174724167142,0.2983804384513905,0.526552448724968,0.4876442768003204,0.30447041689886845,33.0,60.6964,26.8133,KOUVOLA_ANJALA,62 years,336.0
121,FIE00143066,0.4146266873705011,0.4013413935263794,0.243480362461654,0.20932061160082926,0.4031056637937809,0.16161965746620646,0.11071249229429976,-0.024268637119867684,0.2839968579273528,0.4545625163144621,0.4565967538259167,0.20248370149870493,92.0,61.1994,26.0528,HEINOLA_ASEMANTAUS,62 years,338.0
122,FIE00143231,0.3780415702273201,0.41856266016176,0.18963226505184885,0.2010369355775543,0.4141739330029745,0.1569958862923084,0.10195312018309588,-0.07123821892020611,0.2717937182092667,0.3626938146996802,0.3726761521781217,0.2831634709859154,106.0,61.0439,28.1542,LAPPEENRANTA_LENTOASEMA,62 years,340.0
123,FIE00143301,0.4990269669600123,0.4488191024281054,0.3436387548464899,0.11980844897138646,0.2874793934508002,-0.23544854913413715,-0.11174695783318614,-0.06439357019534457,-0.0911769048462218,0.3511435296249876,0.05960822092782584,0.21507595770976407,75.0,61.4225,29.3944,RAUTJARVI_SIMPELE_KANGASKOSKI,55 years,346.0
124,FIE00143311,0.6475461152575869,0.4181766910697624,0.14556583848255866,0.2273028103481465,0.5066525849894469,0.4435914994815474,-0.11239377375908167,0.21628481728912932,0.2028762475445816,0.35149508153510284,0.35175910361812257,0.21832670357595085,4.0,61.5831,21.4831,MANTYLUOTO_PORI,55 years,348.0
125,FIE00143316,0.702959364407531,0.4663643647140395,0.46403266701194607,0.4427893282293581,0.5688036232876208,0.5290756566329108,0.3746221561553915,0.20002247584063013,0.17345154093314094,0.6827856702262997,0.4915613002674457,0.16656702289112366,5.0,62.3339,21.1939,KASKINEN_SALGRUND,62 years,349.0
126,FIE00143346,0.6444682483391028,0.4287296405043152,0.3874631057097088,0.2952338890447353,0.32390827870509137,0.2734829712461063,0.3269151112364772,0.053242004628867926,0.3229347732192059,0.5988378017142231,0.4452045964726393,0.17953496012633455,1.0,62.2575,21.3208,KRISTIINANKAUPUNKI_KARHUSAARI,54 years,350.0
127,FIE00143365,0.6335011799733797,0.5633098919210622,0.4011335817027126,0.3300552775949697,0.5791295774188419,0.4841954341357455,0.10400866504251663,0.14460581178354584,0.028612963941479407,0.4536806098776413,0.5014969025327275,0.16290889428122984,3.0,61.6303,21.3792,PORI_TAHKOLUOTO,62 years,352.0
128,FIE00143381,0.4674577517769006,0.4024413074811444,0.2967163086170796,0.235129001447668,0.4238220610827515,0.1414529113973129,0.06573638550931689,-0.06654902559043377,0.1934949909473304,0.4429106027638061,0.3950241879405272,0.2094664203865232,122.0,61.8381,22.4669,KANKAANPAA_NIINISALO_LENTOKENT,62 years,354.0
129,FIE00143391,0.4194417414837648,0.4250148295976404,0.2784876398117408,0.2463888535687279,0.33593303749315256,0.14680363118127687,0.1524408083867954,-0.09627742371014568,0.14807905516216732,0.4576868983143676,0.4363043024374587,0.1960895413221905,160.0,62.1831,22.8031,KARVIA_ALKKIA,55 years,356.0
130,FIE00143586,0.4237833500480385,0.4233469971292763,0.2641770507692193,0.2099899090873792,0.3447016870956462,0.12998932157123896,0.11957323018477395,-0.1267131096408505,0.07347944781658965,0.35021513170724744,0.44076284770698987,0.18427768631505734,145.0,61.8564,24.7892,JAMSA_HALLI_LENTOKENTTA,57 years,362.0
131,FIE00143596,0.42917242071158135,0.4104482890797629,0.2467424983538861,0.2179706747170536,0.3725529686370341,0.10129433518394976,0.11722588452668932,-0.06318878695394893,0.17871537353922326,0.4656776442458639,0.4481664174974852,0.16869574790471945,153.0,61.8456,24.2906,JUUPAJOKI_HYYTIALA,62 years,364.0
132,FIE00143691,0.38310679822261423,0.5714682570697182,0.36970718980680345,0.4838044869244785,0.4983684937045168,0.2481871780223701,0.3527594492955176,0.09756609608375287,-0.0011773598477188842,0.4613584102603682,0.43137038604588296,0.08002345131105662,144.0,61.8592,24.8181,JAMSA_HALLI_LENTOASEMANTIE,57 years,365.0
133,FIE00143797,0.4822158410049578,0.04117928608187092,-0.04345560283417035,0.22398030071422195,0.17611384862000412,0.12179464380259393,-0.044674065176158885,0.2240987481377788,0.07183845123614954,0.4470197706005137,0.3855633376512821,-0.09574556612590662,148.0,62.4,25.6,JYVASKYLAN_MLK_TIKKAKOSKI,61 years,367.0
134,FIE00143822,0.4183415811339244,0.3818908757575504,0.2168180753901126,0.20428084131964336,0.3997323335735688,0.11886320194492153,0.13868702885161716,-0.1011025069911572,0.2002874431908534,0.43916484554429575,0.4118775981715394,0.1907461872011173,146.0,61.8792,26.0989,JOUTSA_LEIVONMAKI_SAVENAHO,62 years,372.0
135,FIE00143952,0.4157651707839832,0.3772018531545943,0.18745333814448434,0.16183226729280728,0.4118209591311368,0.13651497894247025,0.0899675868018414,-0.08492752791097542,0.1876938052180465,0.3763596605989357,0.34202693675432205,0.17227821579341973,101.0,61.6869,27.21,MIKKELI_LENTOASEMA,62 years,374.0
136,FIE00143962,0.4787412978545375,0.444477828545548,0.15450670274807105,0.16130410287414268,0.3248520498457374,0.12271846202832905,0.1491502833420546,-0.029996328716367582,0.3503636392302389,0.39911233357424825,0.4075729477691121,0.3208190271741657,91.0,62.3081,27.8442,VARKAUS_KAPYKANGAS,55 years,375.0
137,FIE00144057,0.4530892808825637,0.4127398459958996,0.2591142938332305,0.29458475669987616,0.4525365734009134,0.2218654823741516,0.3949819498362263,0.18606844326070934,0.331082006883793,0.5591699146915893,0.6441380403721038,0.4657729983508182,83.0,62.3217,27.9108,VARKAUS_KOSULANNIEMI,62 years,379.0
138,FIE00144132,0.3802339078892096,0.3811027151986587,0.21414330952956115,0.16664915979368886,0.4083809004809232,0.16192257184802447,0.18389640587804887,-0.09722336753000968,0.24994256354502806,0.3714051858501853,0.3199097194621455,0.2390190302904828,78.0,61.8017,29.3181,PUNKAHARJU_LAUKANSAARI,62 years,385.0
139,FIE00144202,0.3438596414167992,0.3558853917223587,0.17999783795886234,0.16031822154989947,0.4196773078093247,0.13903588360431934,0.17680268288580964,-0.13026391690943745,0.1457545935036137,0.4151263826252623,0.44128986764132055,0.2444796908696721,90.0,62.235,30.3494,TOHMAJARVI_KEMIE,62 years,387.0
140,FIE00144212,0.5180359153504491,0.4204962597587695,0.2661454678923046,0.2362576734554805,0.4591274348460767,0.27190300096134296,0.2027101672603763,0.014507413258958731,0.3043915243161621,0.3880530189685986,0.5254634816690625,0.2075306943156708,6.0,63.0417,21.7678,VAASA_VAASAN_LENTOASEMA,71 years,388.0
141,FIE00144222,0.6036238282267903,0.5360026923027938,0.3166326388195345,0.26531870409554925,0.6010470561620718,0.5586847068036381,0.6477494409404669,0.3958895845659315,0.4237165424223423,0.5597884574590153,0.5084132397242921,0.3447231317620343,4.0,63.4353,21.0681,MUSTASAARI_VALASSAARET,62 years,389.0
142,FIE00144227,0.5261923987821161,0.4541624292785286,0.3426679390118169,0.16007679995148336,0.3910197667209245,0.2755544990956381,0.34617411920882724,0.11514239878811353,0.5444462323605352,0.5169209288650755,0.5119235658941643,0.3167978034196663,9.0,63.0831,21.65,VAASA_HIETALAHTI,55 years,390.0
143,FIE00144302,0.4088471003416851,0.5017457935302866,0.3803723976108716,0.16949788840475735,0.4317200743180867,0.2525892303999128,0.3728083647860901,0.16234924581754345,0.5664479971593245,0.5053889792049449,0.5009245169789662,0.1980375147397733,4.0,63.1,21.6,VAASA_PALOSAARI,55 years,393.0
144,FIE00144322,0.5026586137157655,0.4022739922394614,0.26123026497125873,0.22629124782756424,0.42069872519926704,0.1789580374627657,0.16134508460314045,-0.02453990125066825,0.2851024977899662,0.5002404831459776,0.4947764839223277,0.1601875166547205,26.0,62.9367,22.4908,SEINAJOKI_PELMAA,62 years,395.0
145,FIE00144407,0.4658600420884662,0.4290691558777705,0.24947708327850754,0.2458465630421406,0.4058799143031287,0.16911575552171346,0.13776735854842773,-0.05816666856495085,0.2400145816110103,0.4546540917333812,0.4736722180207749,0.20282944111929732,42.0,63.1203,23.0469,KAUHAVA_LENTOKENTTA,62 years,397.0
146,FIE00144477,0.4857829848905566,0.3118235191823047,0.5180795958482528,0.6184980783795374,0.2304684456697934,0.3509230795618428,-0.23170900862945076,0.5107301738398317,-0.048638752422628835,0.7308150027717092,0.7992436963041815,0.0663666878246267,40.0,63.12,23.0469,KAUHAVA_KK_UUNIMAANTIE,55 years,399.0
147,FIE00144482,0.43229779395670176,0.38231824037056544,0.23888039515169385,0.2241551207336345,0.35988456746285524,0.06724910984944417,0.12770289893089065,-0.07533850748475722,0.18947201762453905,0.4011816790534957,0.43812881653236896,0.16999671550913276,157.0,62.5344,24.2206,AHTARI_MYLLYMAKI,62 years,400.0
148,FIE00144557,0.3888657613310425,0.3884243129502673,0.3251608739863053,0.22469323949982875,0.34042975927941205,0.08903924431835637,0.25328306881645124,-0.05755366687797751,0.12839099171059518,0.3969018431487365,0.4477563619734154,0.1965822211344555,132.0,63.0817,25.8617,VIITASAARI_HAAPANIEMI,51 years,406.0
149,FIE00144637,0.41421414094995374,0.4106678350917864,0.22175765315176973,0.2257010179782846,0.3822587202933076,0.12344881281904525,0.27164504840436554,-0.07578931338233359,0.2322256905486724,0.4848346911681535,0.5158256560134589,0.2438355034606664,120.0,62.9214,26.4281,VESANTO_SONKARI,62 years,407.0
150,FIE00144702,0.3963768896370479,0.3881058426767343,0.18997449658051865,0.19289666864613966,0.421959507104954,0.13716759062334746,0.23403990372036496,-0.1458973983672249,0.15005401367385204,0.3642918619347145,0.37500953800976217,0.2238358879832224,99.0,63.0081,27.8025,SIILINJARVI_KUOPION_LENTOASEMA,62 years,409.0
151,FIE00144712,0.39953804755384936,0.391990783082671,0.19512302298984865,0.20756261484904004,0.3882088775612835,0.1307440717544691,0.2937216828168257,-0.07934844502321631,0.2568436997470253,0.3945083690316865,0.3975760871271656,0.2059728166322255,90.0,63.1431,27.3158,MAANINKA_HALOLA,62 years,411.0
152,FIE00144777,0.4955538435105952,0.5328996052943771,0.7928270324620904,0.2976940440372461,0.05854977691206994,0.1156905320297022,-0.044067822644070664,-0.027525995580030733,-0.043356093365313965,0.35522450539220324,-0.1145032155630396,0.5269890616137319,94.0,63.025,27.8081,KUOPIO_AUTOSYNOP,55 years,414.0
153,FIE00144877,0.37429999857895774,0.4010355854372216,0.18841198377794344,0.1709889898959268,0.4049363380415743,-0.05948535848999911,0.17412849060730914,-0.10611148135587116,0.2497037916511385,0.3498096688402156,0.39036092586348375,0.2595811127120584,121.0,62.6594,29.6144,LIPERI_JOENSUUN_LENTOASEMA,66 years,418.0
154,FIE00144882,0.3543185012855473,0.3362476078572973,0.16665162445202408,0.1830123244285556,0.3715916993662365,0.10330425848072412,0.12645957997309618,-0.19563964527299504,0.15676585567309353,0.3224513106245685,0.327379542792461,0.15860745676625626,116.0,63.2317,29.2378,JUUKA_NIEMELA,59 years,419.0
155,FIE00144972,0.4716504638816169,0.3460707682001985,-0.06515967521855168,0.07046756063634378,0.3493409117742034,0.17816702567315007,0.07122598778418462,-0.16616661673101302,0.3504902817894238,0.2569721101287178,0.1939317176437717,0.2677698107614932,162.0,62.6667,30.9331,ILOMANTSI_KK,55 years,423.0
156,FIE00144977,0.5623421387435937,0.5228809639774331,0.07491196268702124,0.2550563949733694,0.13217633360961725,-0.06678778187999174,0.3244892800811696,-0.06503962220701191,0.2673775103918997,0.4018127549383816,0.2876129613552822,0.14309561095270676,106.0,63.3,30.0167,PIELISJARVI,55 years,424.0
157,FIE00144982,0.3262012008243167,0.3882307472236205,0.2016820893916152,0.15102318136750795,0.3434149924410557,0.07831616460538107,0.22854810427973515,-0.1470410151485594,0.14422039890643984,0.3644124608434063,0.3455236383291058,0.2091527982628316,98.0,63.3206,30.0492,LIEKSA_LAMPELA,61 years,425.0
158,FIE00145052,0.23146556678492836,0.3488190812501678,0.3259222939133356,0.24529067498773485,0.3934804833114706,0.08318579913679572,0.12337288074720383,-0.13339536713513278,0.001501480201184096,0.4291359925294041,0.5554492629283918,0.153613708829221,155.0,62.7692,30.9778,ILOMANTSI_MEKRIJARVI,61 years,429.0
159,FIE00145087,0.6119810498008256,0.6058698693361974,0.2371936299043335,0.15362873728335874,0.4639794090104227,0.3222919069570591,0.3637714810995208,0.05783575397285873,0.3433162455630692,0.4148295311194013,0.2095954938578594,0.33017512319534736,10.0,63.8831,22.9331,KOKKOLA_OJA_MARASKAR,55 years,431.0
160,FIE00145102,0.4452524932686368,0.39116204675094174,0.24751797680019946,0.2029474017892952,0.4240869372248967,0.12601235042677886,0.2100620405028004,-0.09525131774009886,0.15382255524863442,0.32637824109121616,0.4458611090095168,0.11579021552704585,26.0,63.7169,23.1425,KRUUNUPYY_LENTOASEMA,60 years,433.0
161,FIE00145107,0.6449015286570059,0.5471506727976879,0.15448117296409725,0.15950584717082228,0.4177430382324411,0.2905263640701989,0.5430718343230777,0.34276268984785996,0.5034900458204672,0.39581707787319803,0.19185883511638252,0.4464026756475871,4.0,64.3331,23.45,ULKOKALLA_KALAJOKI,55 years,434.0
162,FIE00145151,0.5044343463722836,0.6189939512422721,0.4316369883713665,0.10981766611367767,0.5983800140553599,0.42535165592813584,0.5936418426530795,0.3452598722657631,0.2909762309831343,0.4600984607038117,0.32958137599615006,0.3329252881085465,3.0,64.3306,23.4503,KALAJOKI_ULKOKALLA,62 years,436.0
163,FIE00145242,0.4049592693187096,0.3620900349127004,0.19739335666681124,0.2238815224930576,0.4031663875707681,0.1279272691944852,0.2516128411548413,-0.06287654190181824,0.2478870045430364,0.39583846267195777,0.44051804133342143,0.20942915944193,112.0,64.1417,25.4281,HAAPAVESI_MUSTIKKAMAKI,62 years,443.0
164,FIE00145301,0.6136139100942054,0.6206961036049748,0.11008705534441354,0.08652991116364672,0.2301428614596261,0.28714378174395466,0.4772754283503339,0.5609887968498076,0.12829177939186195,0.4615073913939464,0.5617415192344188,0.2035180818551613,99.0,64.1406,25.605,HAAPAVESI_PIIPSANNEVA,55 years,445.0
165,FIE00145377,0.3617011219850323,0.36044198337254335,0.16619147583712596,0.2116275516991471,0.3665908020234667,0.07008661422605457,0.2670290329093943,-0.10104814988599173,0.2377616954820907,0.3045998060319593,0.3843067914144608,0.20254302228939366,147.0,64.2814,27.6783,KAJAANI_LENTOASEMA_1,69 years,447.0
166,FIE00145382,0.3563901069862221,0.36451890566921735,0.15670294280780284,0.19665391862728596,0.3843453451719467,0.061654190434495285,0.2112691952936628,-0.1719347596728656,0.20395163948861425,0.29554509577401755,0.33850482037608337,0.2145326766199388,207.0,63.8406,27.2242,VIEREMA_KAARAKKALA,62 years,448.0
167,FIE00145622,0.4038766828637602,0.3613181075842925,0.2228781607579297,0.2355644394033209,0.4691569263105254,0.1503760557873058,0.2936830240066528,-0.15634256672395191,0.2898211776603258,0.3534688931446723,0.3574844955938359,0.1888729731646784,14.0,64.9283,25.3506,OULUNSALO_OULUN_LENTOASEMA,62 years,458.0
168,FIE00145627,0.39476861636879534,0.34090294109190183,0.18651573330203816,0.22593254559055456,0.4147427377606738,0.08732428404714998,0.2662997415536777,-0.07331198670643897,0.2628902464403612,0.4045334582194603,0.3964178254695495,0.14543401221002542,48.0,64.6833,25.0925,SIIKAJOKI_REVONLAHTI,62 years,459.0
169,FIE00145637,0.43158257882330975,0.38660226801993575,0.19179028359696795,0.22411792611521567,0.2770427591536224,-0.012796003850964598,0.20368218433802196,0.021430054994779003,0.4080380577151158,0.4101239853050919,0.4476579766103403,0.21403591503544445,13.0,65.0331,25.4831,OULU_LINNANMAA,55 years,461.0
170,FIE00145661,0.4049956892579575,0.43600243787544624,0.2629966334340782,0.3350933824779388,0.3725646724474372,0.05807408101122856,0.358387751610553,0.05497123922445543,0.3884958742640132,0.4123300059293721,0.5779978567174855,0.2682533036029519,3.0,65.0056,25.3967,OULU_VIHREASAARI,62 years,463.0
171,FIE00145677,0.3553803267658982,0.3532577524488798,0.2111775477775124,0.20655663347900485,0.3608923839036071,0.09091420807901687,0.2472156383065393,-0.1355110997987828,0.2212586223045241,0.3650786606099404,0.3580391106657181,0.1891495091185924,114.0,64.5008,26.4275,VAALA_PELSO,62 years,465.0
172,FIE00145702,0.2135770255005785,0.36849630630036256,0.21872345326318934,0.3287814150853657,0.386503185013352,0.015615986640771169,0.3379629729091937,-0.14401188529948367,0.16641186684357506,0.31313242106702976,0.3611471979043671,0.023045908948230425,121.0,65.3992,26.9667,PUDASJARVI_LENTOKENTTA,62 years,466.0
173,FIE00145712,0.4456539259861351,0.304392653569731,0.02799428960861135,0.16898543817447353,0.36647123485408695,0.16291746689269715,0.1617403672368771,-0.0736486038794057,0.3427613274130901,0.29736617334356097,0.22272835593241094,0.13634390022513268,116.0,65.3667,27.0167,PUDASJARVI_KURENALUS,55 years,467.0
174,FIE00145817,0.42736399329457225,0.3115764430999867,0.12934810466678925,0.16293644653368905,0.2867085488703579,0.02034925295783369,0.2025119260718881,-0.18705787965325615,0.3332301039606809,0.15731611769262985,0.11420573886046882,0.11692675052602228,220.0,64.9025,29.0167,SUOMUSSALMI_KK,54 years,473.0
175,FIE00145852,0.405530007106192,0.3841596856573613,0.18790289330028515,0.2522265848708982,0.4298037218102218,0.11947684849631952,0.2962610008492609,0.017640144536685536,0.2721573352861516,0.3703622631576544,0.3322016408773891,0.14013577361774898,19.0,65.7831,24.5831,KEMINMAA_KEMI_TORNION_LENTOASE,62 years,475.0
176,FIE00145947,0.3854057723591336,0.3446250844845342,0.1792972501170521,0.22393266694554856,0.3810964420448104,0.16728974692981305,0.2995424469243395,0.008435520160934698,0.30140449202050995,0.2721460441244256,0.2072822410200192,0.2723230857346406,154.0,65.9325,26.5164,RANUA_KK,51 years,479.0
177,FIE00145997,0.4002131977801768,0.35934314994035005,0.10400968026206753,0.3077318883153405,0.4964175022354823,0.2377289968705816,0.4560302605621017,-0.20019216532129408,0.20718237830082245,0.2334052598450701,0.6264393223244626,0.4600944656834265,161.0,65.9764,26.3714,RANUA_LENTOKENTTA,58 years,480.0
178,FIE00146027,0.4294708725553412,0.27006920886497593,0.004109247659116594,0.14773735039806862,0.4221558965570529,-0.017426510422459414,0.26676591879662664,-0.0928273064078601,0.3596775990384177,0.2723971393410184,0.11852926817589506,0.16681269932833814,209.0,65.5831,28.25,TAIVALKOSKI_KK,55 years,481.0
179,FIE00146057,0.3140622962386576,0.4461654388198377,0.16003425627978665,0.2571782890101001,0.3553893510285221,0.06642491783996958,0.5140191283429165,-0.08240099455783657,0.2615607730569421,0.4017835338274429,0.4011222345619092,0.3573722568095176,203.0,65.5739,28.2481,TAIVALKOSKI_KK_KAUPPATIE,62 years,482.0
180,FIE00146062,0.3540939222471813,0.33064598131180833,0.17117911946513087,0.2241361493478561,0.4437890095367001,0.09288231878447424,0.3397813040966637,-0.03403861110148261,0.2517185744246518,0.36711397983431854,0.36459090777907394,0.19830526881000984,264.0,65.995,29.2258,KUUSAMO_LENTOASEMA_1,62 years,483.0
181,FIE00146067,0.26948151106566803,0.34492763285954553,0.2800135566557698,0.26877297834061753,0.3487577879244033,0.08680904611353933,0.3732624764963995,0.06368784413204487,0.1692248328614928,0.37559649072060536,0.3735316094676909,0.2761189152068821,160.0,66.3681,29.3192,KUUSAMO_KIUTAKONGAS,55 years,484.0
182,FIE00146162,0.2763210052734941,0.281607502846582,0.25357641171139683,0.19255900437689466,0.43776735878559,0.16357506388229856,0.3199098831149644,-0.012823482695125732,0.2049423179703372,0.2980237390864041,0.2526818906270162,0.1866634469826858,92.0,66.5289,24.6531,YLITORNIO_MELTOSJARVI,57 years,488.0
183,FIE00146241,0.34292094401223305,0.4194430249944353,0.2267105695025484,0.2262768826155729,0.4905418728151181,0.2070250113942428,0.44205687678255057,0.09327836193139788,0.3433841711416673,0.5017638053030176,0.4280855204860499,0.3274844371201963,85.0,66.4981,25.7119,ROVANIEMI_RAUTATIEASEMA,62 years,492.0
184,FIE00146258,0.3258233322203234,0.3363469104814156,0.25615211671183524,0.20396741104620505,0.3904561563478571,0.10453972592557892,0.4000347446973571,-0.03788154823843184,0.21612297145644596,0.3503831284161139,0.2672277794086395,0.1849228091816753,106.0,66.5789,26.015,ROVANIEMI_APUKKA,62 years,493.0
185,FIE00146338,0.4097367095651777,0.2678275788459041,0.04643520227902618,0.17676426712320428,0.4305112318069664,0.058086721651972775,0.2600889192675202,-0.025936158311135,0.36583464136607774,0.34028310758000463,0.1912948762512936,0.21505434078924054,221.0,66.8208,28.6775,SALLA_KK,53 years,498.0
186,FIE00146343,0.30021565586794,0.2828578065176948,0.2515706331508076,0.267759146313799,0.4276745759043732,0.2435477638421029,0.4134505577369812,0.07755838035527415,0.1483274265019276,0.3756279156157045,0.3500807849067885,0.2726097123125699,180.0,67.2853,28.18,SAVUKOSKI_KK,57 years,499.0
187,FIE00146378,-0.11564489774603165,0.4025975125673437,0.2126299580758135,0.2929226024333074,0.34904168678100833,0.027418362969571532,0.4890885790211954,-0.07732920386429794,0.02804404384724735,0.3225074632298045,0.5149937965195747,0.5181765991681289,215.0,66.8331,28.6781,SALLA_KK_MYLLYTIE,54 years,501.0
188,FIE00146423,0.2274564681224993,0.2448561751366871,0.11098857868810164,0.2499471873576865,0.422060595400842,0.14423384789667862,0.3891134640550471,-0.00041656792825250374,0.2487329671723308,0.3334783944413579,0.2798728570368919,0.24051901580801735,254.0,67.9681,23.6803,MUONIO_ALAMUONIO,60 years,505.0
189,FIE00146538,0.25500220183291256,0.27998398339081626,0.1391887015453013,0.2801422898729744,0.3493228789298576,0.11749115905024485,0.4175482391768638,0.07950685026191276,0.199844439219706,0.4418221463547976,0.29725764024384826,0.230509213571416,240.0,67.8206,27.7503,SODANKYLA_LOKKA,62 years,517.0
190,FIE00146543,0.27055304932171725,0.27118634541043385,0.1688901088287423,0.24003138115059786,0.3819526196974149,0.15488751402597498,0.3829789086153179,-0.000984314686992868,0.1652745997923027,0.35673198920750765,0.2780071615413466,0.27599196538401183,247.0,68.0839,27.1894,SODANKYLA_VUOTSO,62 years,518.0
191,FIE00146548,0.4887162026837542,0.1387549854139217,-0.0647393099101979,0.18849994276921933,0.4111526875011778,0.32572952620786666,0.5391414331162638,0.16220551802013258,0.398860160863653,0.5236046822024579,0.5209676815469483,0.4088155180495047,285.0,68.4,27.3831,INARI_LAANILA,54 years,519.0
192,FIE00146563,0.3332894315461886,0.28384750637997874,0.07137486329083159,0.3809371361739465,0.4887607560401449,0.26397279841378585,0.396886273633992,0.03055713967200976,0.18633340727857026,0.34329623209178584,0.31577791272420186,0.21596806797137372,302.0,68.4142,27.4175,INARI_SAARISELKA_MATKAILUKESKU,61 years,521.0
193,FIE00146688,0.21810958831274893,0.3115371154894043,0.12485785253268705,0.22185148862864715,0.42447971270665336,0.192449345530082,0.3992719298805673,0.0557244243950473,0.18562196506722492,0.374795982340675,0.2944995589594852,0.2989258783263195,147.0,68.6069,27.4181,INARI_IVALO_LENTOASEMA,62 years,530.0
194,FIE00146693,0.3596685202558149,0.14902347575134606,0.059516829982125374,0.21917096594852573,0.3977758867417047,0.2438703984884996,0.3957859708308032,0.16495640130138392,0.3697993581312071,0.5593142964415816,0.2593583895537779,0.3102581468025987,152.0,69.0669,27.1228,INARI_TOIVONIEMI,55 years,531.0
195,FIE00146698,0.12365203682139447,0.22383370203900133,0.13158143495074962,0.2332132074742051,0.4234180005715649,0.2455024519495095,0.4277016276558697,0.19685145248789365,0.26211608190593805,0.4174335148806784,0.2806747253424899,0.3221461962833592,107.0,69.7556,27.0119,UTSJOKI_KEVO,59 years,532.0
196,FIE00146703,0.1217247249995822,0.29343965999163696,0.07123914647644765,0.2051569729312701,0.3599175909901346,0.2550110669356992,0.43904836534948605,0.2853065646390068,0.21518658914747807,0.32223388375946554,0.09692038477526793,0.14437845954195708,22.0,70.0814,27.9006,UTSJOKI_NUORGAM,51 years,533.0
197,FIE00146753,0.18181612407589146,0.13175072556914422,0.1849342919882854,0.020605745184663432,0.4093692228875725,0.29387202517287364,0.4814009087806035,0.10647818410240392,0.4361336938914853,0.393743049706526,0.4186335930473063,0.4986760914461056,156.0,69.1403,27.27,INARI_KAAMANEN,62 years,536.0
198,FIE00146768,0.3562903044668649,0.19345601460457235,-0.009256155524070372,0.25455219442913485,0.3983467535699007,0.13719661421175156,0.3745798510741042,0.1210389996325084,0.2918448509190687,0.44924386881263206,0.23392697757017614,0.2673173908002466,120.0,68.8483,28.3031,INARI_NELLIM_1,55 years,538.0
199,FIE00146783,0.1648681638235549,0.2902553170284572,0.056075151199674635,0.15015909668682512,0.4414633964983096,0.20048203398703504,0.494098466414503,0.041175843470574416,0.30657324652429363,0.2852164977651456,0.30987684365514,0.4159642969392562,123.0,68.8489,28.3039,INARI_NELLIM,61 years,541.0
200,FIM00002801,0.14626405714952875,0.3711237156183002,0.18727755562182632,0.16501037027582807,0.3438559896212133,0.19952521424223346,0.4066900400472312,0.15801516415581054,0.3186927752573526,0.4687358024276096,0.32680653560512524,0.2882759881494581,476.0,69.05,20.783,ENONTEKIO_KILPISJARVI,62 years,544.0
201,FIXLT325413,0.5586936838701335,0.415791366313235,0.005715544139618617,0.12561846513908384,0.3914332691301106,0.31912165178935764,0.2138719508960393,0.109773651854361,0.2231814074074032,0.3625310840477232,0.3909089320882806,0.17581651298441411,8.0,63.1,21.8,VAASA,53 years,548.0
202,GL000004320,0.045237368796250996,0.5507530285671369,0.15046787346312435,0.04178896286324155,0.1841076279614624,0.16792356462307145,0.20333266308544232,0.1484770056875488,0.4125902593466007,0.4117421526058683,0.570029945638749,0.4954976102121922,12.0,76.77,-18.67,DANMARKSHAVN,70 years,553.0
203,GLE00007987,0.31031447551537283,0.4861295605570415,0.17210856556375234,0.2855457290488973,0.3175749585954658,0.2805441919554252,0.33275743921840417,0.6489412133047627,0.7043472085137684,0.4370098082146392,0.4597129072420046,0.7883124581813435,25.0,65.4,-52.8667,MANIITSOQ,51 years,556.0
204,GLE00146908,0.4580907009733103,0.4592503747746317,0.2076910918612086,-0.032448702939882675,0.4770338062404659,0.035868143498440995,0.10834268975571566,0.3688965040885165,0.3714384041313652,0.7593749808612725,0.4563595953952309,0.4301133143535255,126.0,72.7831,-56.1331,MITT_UPERNAVIK,60 years,562.0
205,GLE00147041,0.39962103308179975,-0.051836174578799854,0.14552924717764829,0.19239412565221686,0.3028496516521089,0.13974522132922035,0.1335993152716891,0.36618677745631256,0.5781190273582173,0.6888574757928695,0.4706881357442097,0.5928788269382417,12.0,66.9167,-53.6667,SISIMIUT,52 years,567.0
206,GLE00147061,0.3946309242484112,0.6111319266055963,0.4276521355494578,0.5187530750396767,0.503969074985449,0.4797297426484482,0.3334143325361412,0.6452194272945998,0.6695741117006269,0.7366795760060559,0.6330879483224078,0.719478441601419,10.0,66.95,-53.7167,MITT_SISIMIUT,58 years,568.0
207,GLE00147231,0.4896818941028256,0.3979682924024276,0.24006094675072304,0.3645526527038924,0.4561661480438975,0.3011716268363734,0.4104722131277472,0.5565126181036869,0.5954125501790569,0.6072539699084089,0.5827733820987728,0.5544795907558004,36.0,62.0167,-49.6667,MITT_PAAMIUT,62 years,569.0
208,GLE00147281,0.4363509846164582,0.03287325385188745,0.33466382128788136,0.3652776311925616,0.4353929511518019,0.37687912036079535,0.5076738254732098,0.5335833319687995,0.4408367318043565,0.3693792955670177,0.20318006712438494,0.2865410075884293,27.0,61.1667,-45.4167,MITT_NARSARSUAQ,59 years,571.0
209,GLE00147301,0.3986290944250337,0.2368131484180826,0.21579911590804893,0.3209689910955639,0.4902827725110906,0.3527236838084969,0.3972872972590183,0.5128059009403032,0.5865107722569729,0.5241895389908418,0.5142394906468211,0.534281533382376,32.0,60.7167,-46.05,QAQORTOQ,59 years,572.0
210,GLE00147308,0.6651155758819535,0.2466578422480986,0.09596129595286584,0.1798094291802149,0.8189081305752639,0.5104356611026594,0.3617062429283722,0.6784611175152425,0.4958921811443677,0.43456400660088224,0.6760486330948977,0.7035040917949208,18.0,60.7167,-46.0331,QAQORTOQ_HELIPORT,57 years,573.0
211,GLE00147331,0.4526032843919798,0.5222148976809139,0.5561909359680116,0.12458592174393875,0.4830417105991346,0.6534500992203404,0.2961602720438181,0.5784535532092137,0.8629950947304958,0.6485695458642233,0.5415972958367018,0.51489671591857,25.0,60.9167,-46.05,NARSAQ_HELIPORT,62 years,574.0
212,GLE00147401,0.0449849236966035,0.4873254963995911,0.22480322446292905,0.2357932719125407,0.18873240916512404,0.15429327814288382,0.30541821856783385,0.2674091725001784,0.3989696179065443,0.5504240958807073,0.4527058428613472,0.4021948132215039,36.0,81.6,-16.6497,STATION_NORD,69 years,575.0
213,GLE00147481,0.1633971331605163,0.4976028618328423,0.2066764407568799,0.19172844748583012,0.4276984023619328,0.4909481053675114,0.34751507851646996,0.24147779441017364,0.5317187235560312,0.700936669027151,0.6303253246004691,0.5331364047712472,70.0,70.4831,-21.95,ITTOQQORTOORMIIT,80 years,578.0
214,GLE00147641,0.4205244965014017,0.39767745597646187,0.3394564178446287,0.3526154195765598,0.6275043514728619,0.36941053192183787,0.5761687655007826,0.7007949265030666,0.5646328065539465,0.5951492960907308,0.6609928115628388,0.7050411685257271,88.0,60.05,-43.1667,IKERASASSUAQ,62 years,584.0
215,GLM00004220,0.5924660050363931,0.3634928726044749,0.3828038024279314,0.3042240667204146,0.6017986546082738,0.4960386496372694,0.494293606186201,0.5724737222596498,0.4668354366393409,0.601860927710568,0.4230954652522799,0.3753583796149098,41.0,68.7,-52.85,AASIAAT_EGEDESMINDE,78 years,585.0
216,GLM00004390,0.3686366352643991,0.13499373340869486,0.39326407792722695,0.3395517043348869,0.5311036049419756,0.3015093675535154,0.4043705483412393,0.480278046359347,0.4862174254365829,0.5222444560602658,0.6628385423626177,0.593143336800114,19.0,60.033,-43.117,PRINS_CHRISTIAN,78 years,586.0
217,GLW00016404,0.4326077291666838,0.30788928278536176,0.4602151778471176,0.162393357905291,0.4462864506441857,0.2604265578712722,0.2742565810552131,0.4249820335377148,0.286174968387546,0.4003708380981317,0.2342295571090644,0.19788184045144855,28.0,61.2167,-48.1167,IVIGTUT,91 years,587.0
218,GLW00016504,0.3739940763741768,0.02551398434846242,0.09627897507464804,0.2016086064061147,0.4377846305362123,0.3770258433030168,0.3997946726088789,0.3979480969825394,0.356384664052623,0.3455932533014422,0.2145135934281604,0.2363687720128125,50.3,67.0167,-50.8,SONDRESTROM,71 years,588.0
219,GLW00017605,0.4688145399930409,0.5580591973781774,0.4319902779058283,0.2429168078320254,0.4343477543541421,0.31416231384930154,0.5514245701266015,0.4106274785979437,0.6142078206003224,0.7009882275692743,0.461917417073541,0.2675316957889047,77.1,76.5167,-68.8333,THULE_OP_SITE,75 years,590.0
220,GLXLT055213,0.1846783157377377,0.4704728087326852,0.30116693080011475,-0.10319360181567046,0.19067640785615572,0.3019400382204973,0.17870957220287234,0.3687899399439808,0.7720975916486222,0.4689742509437053,0.3099529280617349,0.2966135587079724,41.0,70.5,-22.0,KAP_TOBIN,59 years,591.0
221,IC000004092,-0.07034974628731785,0.03606216138673892,0.1992941429638282,0.096660542918277,0.4724198241815366,0.33897526318316845,0.1813297159102528,0.2745463361886534,0.3235719745020231,0.6433372372362917,0.5136587667905178,0.26836712100583004,23.0,64.6831,-15.2275,TEIGARHORN,72 years,598.0
222,IC000004097,0.13601499992808924,0.16585831012254798,0.2527467214129966,0.08932623719556684,0.4193056487771069,0.3662962929123407,0.16257427352005313,0.2190918126593477,0.3652464762865804,0.6226306706363373,0.4158779520309029,0.2908536968810708,9.0,65.2667,-13.5831,DALATANGI,72 years,599.0
223,ICM00004082,0.17757208573004282,0.10594734320645048,0.28419518822733203,-0.053806632654854115,0.4707853748765395,0.4089471134629266,0.14621734077518445,0.3637727531570418,0.5547491127773531,0.658102040541935,0.5681545463890928,0.30816562976877143,7.3,64.296,-15.227,HORNAFJORDUR,70 years,606.0
224,ICW00016201,0.20340621998554095,0.055562073366482834,0.20534817215851375,0.08654989613837344,0.4269275167842914,0.34717345014029616,0.13028883374946745,0.3361689450116009,0.6213408074961769,0.6653982205383815,0.3501822306195486,0.14990914298487534,50.3,63.9667,-22.6,KEFLAVIK,78 years,609.0
225,JN000099950,0.3429986594887163,0.4702150555659497,0.4546419873269159,0.2845311924277449,0.4312045836082134,0.3087333150121338,0.27217083138011666,0.6295048533534126,0.6951447207079797,0.7258124453640796,0.66093327229575,0.4907287226059425,10.0,70.93,-7.33,JAN_MAYEN,84 years,611.0
226,NO000001212,0.5684104113505966,0.2521317176112092,0.3652577620881359,0.22675447883166644,0.3772826958207546,0.2376725062883005,0.26044646046636144,0.3878812444222543,0.4738650479784114,0.5992118380398344,0.35959176883950755,0.048839046613980135,8.0,62.8667,6.5331,ONA_HUSOY,52 years,613.0
227,NO000016740,0.5629848118068638,0.29628674514737396,0.3981744583984677,0.1632410712643807,0.3124096587099569,0.18178002867989293,0.13543046012940665,0.2484365200590242,-0.04215575464207928,0.4781882472070613,0.2889981435004255,-0.012823783124516857,626.0,62.1,9.05,KJOEREMSGRENDE,60 years,615.0
228,NO000050540,0.6096794710540051,0.2407645587199171,0.3593744408305033,0.20829059964442045,0.3845646849527985,0.2941367249248087,0.14377312226862576,0.23740147377783935,0.14444134883547494,0.3637628121606688,0.2515758761103905,0.1509300907986969,12.0,60.3831,5.3331,BERGEN_FLORIDA,64 years,616.0
229,NO000068330,0.41519143876064746,0.17989828870712504,0.5225856118962847,0.20999443104143933,0.4707383509532242,0.19730922276352014,0.05261870857255705,0.463876795801752,0.2301650816618528,0.4372600827163077,0.2859026728410289,0.17067415084962168,242.0,63.2,11.117,SELBU_STUBBE,86 years,618.0
230,NO000080700,0.183465178368564,0.2771624000850009,0.1619066539525453,0.2384217416822333,0.3527030163559216,0.13130101127745689,0.23246181628370174,0.09164358910938744,0.2842066487364291,0.3257817678180464,0.15659940549119122,0.09617566478233663,39.0,66.8167,13.9831,GLOMFJORD,78 years,619.0
231,NO000099710,0.4619127441073712,0.5185075550545662,0.5741207293059323,0.4222591180570732,0.2854910158019884,0.4846677456343455,0.4740404268748528,0.6229470486871842,0.5492455595959643,0.5113950060759355,0.4613544716961737,0.4926750728357554,16.0,74.5167,19.0167,BJOERNOEYA,84 years,622.0
232,NOE00104443,0.2341074741154255,0.4436095655749036,0.2354734320396217,0.2522217047875765,0.4416385403585217,0.2455164818033673,0.3800403178134158,0.13257790530301292,0.3647051429551419,0.546889038875845,0.2533218108538075,0.27075389958099777,11.0,68.1503,14.6506,SKROVA_FYR,67 years,623.0
233,NOE00105467,0.2996753792450903,0.34073143885941154,0.16599906296640654,0.2752545181350652,0.3608707066759525,0.1605958313770025,0.3160767266025224,0.12529553501048415,0.29891122303545364,0.40767334716068576,0.2923077709788863,0.2050124714411536,11.0,67.2669,14.3589,BODOE_VI,81 years,624.0
234,NOE00105476,0.6125475708353282,0.5735896484282943,0.6191374511972867,0.35865998025466683,0.2999303928917739,0.4403421299661828,0.42043684896148,0.6398714294337472,0.7004973087619867,0.7473747123438776,0.6159930271738174,0.5516264811626896,6.0,76.5,25.0667,HOPEN,76 years,625.0
235,NOE00105477,0.2457851430787936,0.2734714814179317,0.36293665703569,0.2444222384792809,0.3804899325262483,0.3922113483349084,0.4206091366537805,0.6130828179736073,0.5656425945220216,0.6733429522828608,0.5918732059148953,0.3767909555974989,10.0,70.9331,-8.6667,JAN_MAYEN,94 years,626.0
236,NOE00105482,0.5767844928978636,0.2777476313924248,0.3850099963846622,0.10873492701903488,0.4666349591814207,0.33934282701065305,0.3110835826034089,0.3094879873973847,-0.0034853140158488142,0.5070594792705433,0.3975451069773693,-0.04909354016777915,167.0,60.5683,9.1217,NESBYEN_SKOGLUND,71 years,627.0
237,NOE00105494,0.42570852292454703,0.3821731450514636,0.2867461707488808,0.2529040407167822,0.4394668987468053,0.4102293426145167,0.4933094350083797,0.4863240436151337,0.4011602190942671,0.4910123336217464,0.3688256077239396,0.4554711826196934,14.0,70.3669,31.0844,VARDOE,90 years,628.0
238,NOE00105498,-0.15391911527863622,0.045448873852322616,0.4143623951782662,-0.201424148665295,0.4173611813644648,0.30113494011204217,0.5669573150068484,0.25460872012377617,0.1690055689113449,0.17212672749416086,0.07884050334675564,0.2770401502602524,131.0,69.4633,25.5019,KARASJOK_MARKANNJARGA,78 years,629.0
239,NOE00105503,0.5014474335886188,0.12124454494422565,0.5486582927158905,0.23913123887508875,0.49829196076157706,0.3886513244691149,0.004747154567217561,0.20848449745254555,0.2810150023932517,0.2912816410437845,0.40636345270069146,0.10681562478905017,166.0,60.5669,9.1333,NESBYEN_TODOKK,78 years,630.0
240,NOE00105505,0.15179156290715598,0.36625947145840015,0.09150851689355416,-0.10447091004957458,0.289941512196668,0.0920309085903526,0.2977566978465234,0.313327884197356,-0.04415645089772805,0.1974010523153892,0.1531483774558046,-0.07802263045935652,381.0,69.5794,23.5342,SUOLOVUOPMI_LULIT,52 years,631.0
241,NOE00109394,0.0666510731204734,0.2602652391830718,0.11812165715390108,0.1733120912329483,0.4274821984958909,0.17518120095431064,0.4253814288188688,0.12989840993466836,0.20775480941241387,0.3453007278042031,0.30886432190258306,0.15787563616153527,76.0,69.0589,18.5403,BARDUFOSS,75 years,632.0
242,NOE00109459,0.2347404352612959,0.3498193198814726,0.2312638904393,0.19021234321900296,0.35057513740516444,0.2784551222478244,0.4509943870250138,0.2631151900281167,0.31750943854617586,0.4730354394781843,0.2895003024661422,0.4209208507797005,13.0,71.0931,23.995,FRUHOLMEN_FYR,67 years,633.0
243,NOE00109476,0.15234241741108648,0.23784873325199826,0.04599648004630445,0.13851562036216236,0.3649053831054784,0.285045963648901,0.4563566851842781,0.27312821516085184,0.28433570879785136,0.5146315757660024,0.2291751693229773,0.2840691901605237,10.0,70.4003,28.2003,RUSTEFJELBMA,59 years,634.0
244,NOE00109485,0.18941776843474184,0.27453777688857944,0.16419651050802656,0.1881303433532537,0.37944022962485496,0.17045034131689485,0.38776575293511895,0.22555995161059805,0.2253814248607504,0.37775683786455583,0.3264660868683475,0.32201694531478803,382.0,68.7553,23.5383,SIHCCAJAVRI,67 years,635.0
245,NOE00109497,0.18594584933025107,0.13027943368151731,-0.005534700931772955,0.15473955889074864,0.4608614707587442,0.2721040550295325,0.3706098136147026,0.32942350816374183,0.2520106863906151,0.4497366872353024,0.15222172327429606,0.2570450732171782,377.0,69.5881,23.5317,SUOLOVUOPMI,51 years,636.0
246,NOE00109514,0.6913004426210357,0.4173876277702256,0.4570004972188256,0.2389131292979844,0.4840061721415187,0.419059637511324,0.21885451489773314,0.20365433892177984,0.13350453545131882,0.4215846621654104,0.4503919122124342,0.16362162861719065,202.0,60.2064,11.0803,GARDERMOEN,81 years,637.0
247,NOE00109604,0.470350836652595,0.40955417654227055,0.3086570258895125,0.24922688737824805,0.3729229594618608,0.19481959431801016,0.2309631368735402,0.172372184340121,0.3581246160388485,0.4664455077875427,0.3317916244447395,0.1908546894861501,10.0,63.7003,9.6014,ORLAND,70 years,638.0
248,NOE00109613,0.5238041711534576,0.26825841308885034,0.4108100059044641,0.07875649536529833,0.3082697025845529,0.10523463782601176,0.2131745472578556,0.25124950770004345,0.03048860612283965,0.4363437512051986,0.14458454484632766,0.02563864122608456,628.0,62.5669,11.3833,ROROS,60 years,639.0
249,NOE00109622,0.4352413039348788,0.2906904481565184,0.4098205710099329,0.26240342204212985,0.2695359967148754,0.1809758305523572,0.12589383523897432,-0.03114379384922712,0.062320811385247615,0.23076596188718915,-0.22548700301637406,0.12294891681766595,625.0,62.5769,11.3517,ROROS_AIRPORT,67 years,640.0
250,NOE00109701,0.6437210188826544,0.3654538793166003,0.476401079705729,0.1989276899338603,0.3519285650091433,0.1822789390632792,0.294677063556232,0.15006309285303596,0.17118968869627044,0.5608217736939051,0.4779303598403664,0.16073058479008978,240.0,61.1592,11.4425,RENAHAUGEDALEN,56 years,641.0
251,NOE00109737,0.5966227211800046,0.2797204929580321,0.5335148404261685,0.3444274676469969,0.3239505312526513,0.15129059575729548,0.16285078038358772,0.3549220010004832,0.4451882454148625,0.6117136705773979,0.3887777675279252,0.19441757438667465,13.0,62.8594,6.5392,ONA_II,58 years,643.0
252,NOE00109746,0.4944027077233379,0.1874980405592287,0.3859959213305114,0.2665974654583028,0.3828256219542859,0.19651650748847288,0.1825024327572264,0.2590852770735643,0.21354380530099185,0.4199446438113437,0.1547839316801033,0.027125244428448048,15.0,62.2333,7.4167,TAFJORD,68 years,644.0
253,NOE00109768,0.6058891083036635,0.20746406811372467,0.40934513763893626,0.2857246464354319,0.4087524383644632,0.3089119946516171,0.15633207398636872,0.2537189902127093,0.10794904056396884,0.4384373480684877,0.3415917846563,0.11262026245119525,38.0,61.0267,5.385,TAKLE,65 years,645.0
254,NOE00109777,0.2258199235202339,0.3732771227699392,0.11726392858269186,0.2321144204032957,0.4006460904463164,0.3872057922876253,0.5010477762522041,0.40305044601840295,0.42605220840818303,0.5111581336848006,0.3322368232701477,0.411975998531948,8.0,71.0839,28.2178,SLETTNES_FYR,65 years,646.0
255,NOE00109966,0.5422370497608597,0.3508759643052071,0.4441632974960792,0.22563470596108026,0.3858495819009955,0.1665739781455407,0.10151106090273526,0.05282544674116201,-0.019431068983763386,0.32952556502639546,0.25000483943735546,0.10060885055764923,672.0,61.8869,12.0481,DREVSJO,64 years,648.0
256,NOE00109984,0.795393890119047,0.3947902059002091,0.4053016150464293,0.19573365475582996,0.5424811091935193,0.43329822075355134,0.21337271949046055,0.1974519869069308,0.17156501438019955,0.460710354557323,0.5260969583113285,0.2387551054050657,128.0,60.7806,10.8117,KISE_PA_HEDMARK,64 years,649.0
257,NOE00110038,0.5821864089529989,0.3060951452622848,0.32314825846078754,0.13048951190267893,0.3782320597724565,0.2289359399307277,0.1596013697430024,0.201792865258938,-0.05826061042070965,0.4846149998011315,0.3405650906136244,-0.08210986158159836,639.0,60.9181,9.2903,ABJORSBRATEN,63 years,650.0
258,NOE00110119,0.6752541647813488,0.3849173857456065,0.43780726000153786,0.2454844322633765,0.42482706235629697,0.3288352608270774,0.13309858604859234,0.09980795160056492,0.11897119747284493,0.38799781546976425,0.40839809408764977,0.05897708698376755,264.0,60.7,10.8667,OSTRE_TOTENAPELSVOLL,64 years,651.0
259,NOE00110653,0.6362426367067882,0.2719030426834293,0.3783936115110947,0.25245859652969505,0.3987598481560433,0.3124705343653129,0.13026040849447834,0.2305319548352044,0.11349150015253848,0.377610232562644,0.3146488802080922,0.21088163470890856,48.0,60.2892,5.2264,BERGEN_FLESLAND,66 years,655.0
260,NOE00111111,0.3963884372266253,0.4428402931564638,0.2649514749276589,0.2970560691590262,0.4037385600068914,0.204969645269667,0.5509940924441632,0.3644222388715856,0.5593693840523752,0.42871931784864825,0.430768054870231,0.23877767040735196,33.0,64.7978,10.5492,NORDOYAN_FYR,70 years,660.0
261,NOE00111165,-0.11722051570936858,0.3062104530188244,0.1399585052653287,0.16154279677483802,0.08012530140143354,0.06005780776225352,0.2562586141307643,0.4920701902527228,0.2490289426699657,0.09575954764429784,0.16790266388511366,0.2755811222967396,33.0,67.2831,14.4667,BODOEVAGONES,53 years,661.0
262,NOE00111273,0.14015038745279376,0.3336029536455794,0.040216951791050684,0.20874351907678526,0.3906741310779309,0.10585461995611048,0.35531308786129234,0.09911227018207512,0.25868000920476275,0.3705376075497759,0.2475672270634193,0.04268410563490012,228.0,68.7781,19.71,DIVIDALEN,76 years,662.0
263,NOE00111318,0.2658038997140344,0.30932485202292537,0.21250532882058848,0.2470938418124292,0.3228671952891677,0.24889072521227704,0.4590497726013072,0.23753136993528476,0.22491809365857585,0.4954788531620698,0.2415621264661889,0.29152629512103656,21.0,70.2456,19.5006,TORSVAG_FYR,67 years,663.0
264,NOE00111327,0.09017250242166217,0.24491223267447,0.04830766157749933,0.2082358710351233,0.35767714889641866,0.13079669077432893,0.4509986694955581,0.18816687906243096,0.2078852767771457,0.4004660809634839,0.2904306384772109,0.3418162669217442,286.0,69.3667,24.4331,CUOVDDATMOHKKI,55 years,664.0
265,NOE00111336,0.07224756461168694,0.22576187526723346,0.19489944684358748,0.1072663079892409,0.42939340451976293,0.2674025219292493,0.4400170257305129,0.2420103382875411,0.2313359791237843,0.35153302137807724,0.30708482539838045,0.3535409689815129,307.0,68.9967,23.0333,KAUTOKEINO,67 years,665.0
266,NOE00111345,0.3599225345559016,0.35403563931732146,0.17850975416295808,0.2289495978041589,0.25442183588969314,0.23967475480539746,0.3734072135520239,0.3220688596932489,0.10718686833253928,0.5137975645543285,0.2712541019603356,0.22983829460518398,330.0,69.0167,23.0339,KAUTOKEINO_II,60 years,666.0
267,NOE00111354,0.2530687301020742,0.3198260779166708,0.1773797867937176,0.1593837000382633,0.3849690390709494,0.3359133258952457,0.4441191820103289,0.4024962603386665,0.3851877392596178,0.43288344735483053,0.3037022832555503,0.29970364329136645,9.0,70.7006,30.0681,MAKKAUR_FYR,70 years,667.0
268,NOE00111385,-0.04384380435383208,0.2285074848708896,0.3341896274097552,-0.009057580159006307,0.19231361342653736,0.38936025711237,0.4471905022924664,0.4948738376807677,0.6096180685410443,0.7464061924199165,0.4654409538741569,0.2710425704504121,6.0,66.0,2.0,MIKE,60 years,670.0
269,NOE00112071,0.4959276917465798,0.3814612577602609,0.3066695698297174,0.18788729868987333,0.4030930815565412,0.2113678098303448,0.24145140633267625,0.1929011222971448,0.15221478376737685,0.3319182652794124,0.16253793734302618,0.13258508804819294,12.0,63.5,10.89,VAERNES,81 years,671.0
270,NOE00112080,0.12879363796532198,0.2531956389444878,0.21386164339029015,0.23515424368673174,0.42789301849731537,0.3051901297533237,0.4707677560003672,0.18544596035600602,0.21162817091988828,0.533460771776798,0.2895191316323634,0.28158805560370376,14.0,69.3,16.1497,ANDOYA,61 years,672.0
271,NOE00112089,0.5089397872239061,0.3550986438567821,0.2267563361952249,0.282871992401023,0.4007933675119434,0.14986136033349734,0.2711381994065221,0.2064275481290708,0.1272735798005698,0.3514783452142506,0.19675208428145136,0.1300444832750392,195.0,64.16,12.47,KJOBLI_I_SNAASA,66 years,673.0
272,NOE00133110,0.16899495812055473,0.2375637811942428,0.1210584656447747,0.1592803304253992,0.4878479333111524,0.3518038344560297,0.4818197317228249,0.25535581241266503,0.2204068285793426,0.4231733619913644,0.24956888390885584,0.3140710293228892,3.0,69.9775,23.3581,ALTA_LUFTHAVN,58 years,675.0
273,NOE00133650,0.5259641888011365,0.3037522382725593,0.41993351926330574,0.2462044838810377,0.4306886259767146,0.3005007981440031,0.2640316942729825,0.3917744615650578,0.3960606569426505,0.5592449783997699,0.3738936689205597,0.2570914702078527,38.0,62.3292,5.2681,SVINOY_FYR,66 years,685.0
274,NOE00133746,0.5338714346651816,0.30736089179926096,0.4094992313578144,0.21670936746545225,0.3872182680374167,0.2147215467746436,0.10865644317834668,0.24096434439906644,0.3115920278338936,0.4983663683862742,0.3389470469520623,0.133399297935987,22.0,62.5617,6.115,VIGRA,63 years,690.0
275,NOE00133954,0.05201078537872875,0.3749917865561219,0.0262914872173367,0.15571083812618566,0.3677874212623543,0.18532742833721114,0.19100762985557246,-0.051285656301312633,0.18844161175929147,0.09311371658348043,0.011029285836900243,0.4195085775927938,9.0,68.2453,14.6692,SVOLVAER_LUFTHAVN,67 years,698.0
276,NOE00134214,0.6161244043754921,0.3727132852630098,0.4061657187115223,0.23324616730857475,0.33281362369468165,0.20048353064949195,0.14771900010436434,0.2622082456818265,0.04434925702620225,0.28656871804862005,0.32994768047617384,-0.02511766442259063,521.0,61.1217,9.0631,LOKEN_I_VOLBU,60 years,705.0
277,NOE00134538,0.6830533534902224,0.11631163410708692,0.39740660774493936,0.20634930165182916,0.2299036398164289,0.1587305988700594,0.08736036745045885,0.3243075441474215,0.08699261097209543,0.4494030531324298,0.3222693283477961,-0.06924009251594722,51.0,61.7881,6.1833,SANDANE,64 years,710.0
278,NOE00134554,0.7487338709108453,0.2645859694653259,0.5228346284481348,0.3749222470518725,0.31338460473310514,0.08900095409352875,-0.11016521928883703,0.16225117173307738,-0.1730091643381562,0.0852978979271829,0.2812397826673965,0.2531739586026888,60.0,61.8292,6.1042,SANDANE_LUFTHAVN,58 years,711.0
279,NOE00134682,0.4115805426238715,0.4285386685610554,0.3659963059704409,0.27363169790366554,0.4433536177892068,0.15302230833099092,0.22295786969940504,0.11131121865345417,0.29121676497308274,0.418697951918366,0.2770592201297662,0.16430806123480673,18.0,64.4014,10.455,BUHOLMRASA_FYR,56 years,712.0
280,NOE00134742,0.3851266010122097,0.4034971433594317,0.4029481435436966,0.2524437317915598,0.4046453406248496,0.21862272107419375,0.24797402466519305,0.26485458462194045,0.490382379815171,0.5487414004875047,0.59543426558227,0.2857953076232456,5.0,63.8467,8.4667,SULA,66 years,713.0
281,NOE00134754,0.458301590501964,0.4678384000475604,0.00792225847023892,0.12652631846171367,0.5719395968167099,0.2981570267860467,0.41233307107080497,0.4528693463089253,0.5810170655105485,0.4809454894749862,0.3251842300229944,0.2698492692711543,28.0,63.85,8.4667,SULA_FYR,60 years,714.0
282,NOE00134934,0.1970785841843326,0.30169863451763984,0.11895688299860314,0.18950618830435487,0.44400122111511175,0.3275715790246647,0.5502014136596317,0.2580645865550833,0.21570827851993102,0.5034398161870501,0.3502072598220957,0.414922780484058,6.0,69.8333,21.8842,NORDSTRAUM_I_KVAENANGEN,56 years,719.0
283,NOM00001089,0.36405315133325306,0.5875661586347538,0.34206408073619954,-0.01965756749299177,0.09683535979426464,0.08837441225666605,0.1102026054554728,0.5322914800082555,0.2367382282829892,0.34607414431346817,0.32661327099344073,0.12475806324588397,91.0,69.733,29.9,KIRKENES,95 years,721.0
284,NOM00001238,0.5478053896189916,0.2280222080359185,0.3677688216898461,0.2247294747499344,0.3862445733771019,0.1687590169994659,0.2877001053840206,0.3211913168719204,0.12465842619427285,0.3640079854425177,0.2736704036778311,0.13986640739146494,952.0,62.1167,9.2831,FOKSTUA,98 years,724.0
285,NON00006020,0.6274952923399852,0.16272195671284365,0.4792429312728605,0.20028068664022636,0.4456487305359016,0.276078875862782,0.2331167539708613,0.3954719502413481,0.15834216226775266,0.3729832217099369,0.2924377856194465,0.07000530902703134,185.0,60.6141,12.0125,FLISA_II,93 years,732.0
286,NON00008850,0.5594721158704368,0.08220812303223057,0.6190198324058731,0.18249437027800905,0.4535901677545967,0.5166649012450035,0.10655180269420964,0.3618432149688652,0.1160066237492185,0.36265419445919295,0.12753426478483598,0.3127470726305479,485.0,62.0277,10.8017,ALVDAL,54 years,740.0
287,NON00012640,0.4629364046327282,0.14372722729861187,0.3598288842285639,0.02424588928131876,0.33093536947354074,0.2888012252489576,0.22378377100860772,0.2818877667361246,0.11484855392112638,0.4128470871607839,0.23867956929966894,0.2494290146916451,271.0,61.0808,10.4756,LILLEHAMMER_III,90 years,746.0
288,NON00025720,0.4297418151779492,-0.0640387926781948,0.3750208521337878,0.2791665845065238,0.4300851079451689,0.4840038939773855,0.15282794916971704,0.2952438750609488,0.24870303755082016,0.5305053493768449,0.20068771655098872,0.20151065304161456,996.0,60.5186,7.825,HAUGASTOL_II,82 years,763.0
289,NON00050300,0.48287057605806605,0.030448925191076923,0.3617145775523057,0.30890552120915343,0.4585949636710308,0.30437994030658755,0.27804740726382354,0.09459824701336808,0.30111903454419897,0.4486262691942615,0.2009368953860965,-0.16087212232604212,408.0,60.3933,5.9133,KVAMSKOGEN,59 years,770.0
290,NON00050460,0.54938077466784,0.17526655496599575,0.3691243783215456,0.3111140512891332,0.3977366581903404,0.22579112709328714,0.16184846303178935,0.10546979651665417,0.2281749429650549,0.3069017069881959,0.14881234205339405,0.008389046970216509,48.0,60.26,5.3533,FANA_FORSOKSSTASJON,57 years,771.0
291,NON00052290,0.6071502781354011,0.2455947707375808,0.3493521993992591,0.2951565600874984,0.5002440632301837,0.3258096943117617,0.1990782232729927,0.32474011074632864,0.3038228076589794,0.4409283885297396,0.2445842216994913,0.024487714444917017,114.0,60.841,5.9533,MODALEN_II,67 years,780.0
292,NON00053100,0.4848138904997317,0.2644355947396669,0.3978463405431344,0.1702871108148269,0.3928351939390055,0.2729632808307538,0.3346800068084897,0.4938275180040445,0.5193224823916343,0.4935181960236298,0.3073949270385979,0.2284368522518665,51.0,61.1725,6.6455,VANGSNES,91 years,782.0
293,NON00053380,0.29247145884915626,0.19104201964939985,0.13068973372642345,-0.13141940784735515,0.5047227704577083,0.03301559891873149,0.34974632452109544,0.3012589482505133,0.11563987359696505,0.3767374426291831,0.16422927325710918,0.1714496701923496,870.0,60.7333,7.1167,MYRDAL,57 years,783.0
294,NON00054100,0.32826513077192737,0.1694756700589306,0.20122634793226266,0.08654251376489155,0.5268232681096013,0.2687637635734002,0.2499234779139751,0.361281043947532,0.3536605494198823,0.36180507067254375,0.22201509572879136,0.29765887640867794,3.0,61.1,7.4833,LARDAL,78 years,785.0
295,NON00055160,0.5197550859693421,0.2559443714409301,0.30661523728758405,0.1688080167071905,0.531611701577017,0.3195818400610539,0.2336090109708004,0.4920504072186266,0.354720511545233,0.4382228096287943,0.1398134423841036,0.1200621974715022,27.0,61.5,7.7005,FORTUN,76 years,788.0
296,NON00055230,0.35531624060004485,0.01984275622083971,0.16532279840283032,0.3241635197410431,0.480696665313948,0.12978375116795585,0.4601494823300465,0.4087724478342567,0.3356896621293288,0.24200489767184896,0.15508949846647058,0.16781227862903966,2062.0,61.5158,7.9058,FANNARAKI,81 years,789.0
297,NON00055350,0.2997937429384123,0.11023840928698247,0.2856160662737752,0.09809177522819024,0.4063692997130613,0.17872832702503355,0.3472239200294499,0.4729386307182173,0.399704213289188,0.419799967140103,0.2593949900305724,0.40486058467191177,484.0,61.4407,7.4278,LUSTER_SANATORIUM,72 years,790.0
298,NON00055780,0.4709548489726684,0.17525435401037856,0.2972791362812702,0.18949812650591685,0.4632884339014538,0.17524673873038546,0.16064726241256136,0.3886259359509964,0.42201126472901,0.3009618442668623,0.2152766815864724,0.08852735429064251,53.0,61.1833,6.8667,LEIKANGER,61 years,794.0
299,NON00057170,0.4079541551258981,0.0899011558803929,0.3637151378413314,0.055391222507933616,0.5283591724955671,0.19585657926868255,0.11785724736491572,0.4728652705785399,0.4333003934985704,0.4453771706657143,0.09635458812561652,0.1579690435964414,3.0,61.45,5.85,FORDE_I_SUNNFJORD,66 years,795.0
300,NON00058700,0.39412692653041015,0.23263983736945726,0.2470520940885297,0.1574616013721301,0.4367921687385596,0.16699461260182474,0.34004440519583234,0.459121657308233,0.39859452327903705,0.4809958323544343,0.3871075103152896,0.30317647518706997,201.0,61.9333,7.2267,OPPSTRYN,94 years,801.0
301,NON00059100,0.41788623246392254,0.12933923206111195,0.3617734651053311,0.18342702878899303,0.4483742872579868,0.2474023446453595,0.1614314553795993,0.5883071893795979,0.551707476262947,0.4676006428674312,0.25791457561516873,0.16343498111181226,38.0,62.0346,4.9859,KRAKENES_FYR,87 years,804.0
302,NON00060950,0.3458116208734882,-0.02593419881960944,0.3516051204148382,-0.10284492959701916,0.3549304405212385,0.2569249688518381,0.31654564671357704,0.3266493974511311,0.3489806063692593,0.5732867036018778,0.5231532204744069,0.05660470905228573,6.0,62.4755,6.1508,ALESUND,71 years,811.0
303,NON00062650,0.401412272475056,-0.014043185841521037,0.3615363207120945,0.4149482976352479,0.4684753491736609,-0.0073006375792528735,-0.134564255077892,0.4762994252522462,0.3789564334833816,0.22977187720267986,0.14651971075792888,-0.06566415728981362,26.0,62.9667,7.15,HUSTAD_II,58 years,816.0
304,NON00063500,0.3030677683836691,0.18465658103931812,0.18156142023819996,0.10960306749654243,0.41729205803905134,0.2189206406840747,0.2271235613516401,0.41559431397934105,0.3526520238902678,0.4913603603376964,0.4955701637432464,0.3841665438410848,195.0,62.55,9.1,SUNNDAL,80 years,818.0
305,NON00065100,0.4546695990221453,0.07119818937918354,0.2284850735504464,0.2158626998181545,0.509328585181007,0.16062154863990874,0.10831382837016863,0.33863141655058177,0.2201990998574007,0.35087650209409577,0.11034342048371996,0.09172947365037604,9.0,63.2066,8.991,VINJEORA_II,85 years,821.0
306,NON00071650,0.3308923748841395,0.1601190561931517,0.3494332556829472,0.1611918741874797,0.4556947511881726,0.08905837888674872,0.2754740249894924,0.5126394926927146,0.5261387959636477,0.5016900312175913,0.3758171766475397,0.2870327403084025,4.0,63.85,9.7333,VALLERSUND,53 years,836.0
307,NON00073470,0.5716973911144562,0.1706343764314913,0.5957984673264756,0.2634505256999252,0.5801928192581416,0.5720509886733615,-0.10594752698193896,0.4895025422716681,0.1944026821728684,0.4607833174564445,0.27048187446044075,0.3862117260620574,402.0,64.4619,13.5916,NORDLI_III,67 years,838.0
308,NON00075600,0.31479626767755065,0.42465745881047495,0.3154994371652027,0.3057436866099024,0.5242946139634591,0.20094799532695715,0.054077639299439366,0.15584910771137644,0.3410820959008058,0.21496942108543626,0.08338596659978634,-0.029206366250519814,47.0,65.0975,11.7022,LEKA,62 years,841.0
309,NON00076500,0.2110323177441315,0.4158353485048281,0.4104316138310143,0.3021612221790673,0.4498819431722336,0.119279149374135,0.16003273281428204,0.4528248424817104,0.544338331795498,0.5015715471945444,0.2835269483602189,0.2344920403596696,6.0,65.8667,12.1833,SKALVAR,60 years,843.0
310,NON00077640,0.3164447792242152,0.26342564960256104,0.24669715159671904,0.17537882695271792,0.529447711743303,0.4378197331844634,0.0819950152415089,0.243268700432514,0.1654264212528744,0.40501479387613776,0.243562364640784,0.18268029260999286,221.0,65.6,13.9833,HATTFJELLDAL_III,67 years,848.0
311,NON00080610,0.204129760105918,0.3860380668896684,0.3250065730109193,0.20346433424226898,0.42175939249960026,0.19349234862249853,0.3191346155075513,0.4554415729195186,0.4809754925636066,0.5019812333016559,0.2818330697896542,0.29702312971491673,17.0,66.7628,12.486,MYKEN,92 years,855.0
312,NON00082400,0.1544769769325377,0.4148314262350649,0.29655803697771177,0.3836617149057899,0.2303429907527912,0.17103638230408552,0.15863876068685673,0.2574214716077262,0.6411197581896031,0.5738840892448538,0.1039280630756779,0.32750972401557005,14.0,67.4257,13.9246,HELLIGVAR,69 years,867.0
313,NON00083120,0.05428710541711401,0.4173606761941249,0.43058814217612096,0.22293153916680464,0.3933348906735644,0.106928108850952,0.2035140945966516,0.4425027251278984,0.4979339360620307,0.5353203899237757,0.3699312402165599,0.33808005297294225,6.0,67.8333,14.7833,GROTOY,58 years,869.0
314,NON00085950,0.12693790769843302,0.2136479189793207,0.4044504297507335,0.10541118484444488,0.4365293886669207,0.29179550029318424,0.2331559991478673,0.3982356956870128,0.5428694064935341,0.598560383965329,0.5127297076417802,0.3886454493189174,18.0,67.4102,11.8731,SKOMVAR_FYR,88 years,876.0
315,NON00087400,0.04263385114616839,0.2830600341514839,0.25986632938569204,0.08515866432948432,0.4172191747817273,0.20716282190815866,0.0034533467904217024,0.4620211515947087,0.4967514831107817,0.4811161164048911,0.34266483129320785,0.3572269228796554,17.0,68.9448,16.6551,SANDSOY_I_SENJA,56 years,881.0
316,NON00088900,0.11731159474363227,0.19267636240842245,0.15197521750630852,0.2981841837495233,0.4686078895055562,0.37309028400000804,0.27670356845045097,0.4025996708950577,0.3615398113524531,0.4983488623149573,0.19930399675564506,0.11746260839106283,12.0,69.3538,18.075,GIBOSTAD,55 years,886.0
317,NON00091350,0.004157097651329499,0.20628954997898674,0.025995491592243555,0.09016378182567124,0.07122035847888215,0.08089002313695626,0.08280976835270154,0.2510797662830096,0.320718002317957,0.2319811910006193,0.20261081216240992,0.16422543387900695,46.0,69.3777,20.3024,SKIBOTN,64 years,893.0
318,NON00092700,0.09311387452708927,0.13276920693724042,0.2260828627093725,0.07800804131897572,0.3954815835475948,0.2246015642901555,0.17988219581012088,0.4857472874924896,0.34554331260989,0.2857799863058592,0.22543652045681606,0.2533660110774093,10.0,70.3348,21.4528,LOPPA,79 years,894.0
319,NON00094700,0.02619243477764157,0.1170023056882502,-0.01390035900540015,0.08117048849535334,0.2908423259146797,0.27614826579470275,0.4259064876974071,0.2686151759437158,0.1985014659909296,0.3020246558036523,0.15507437592578696,0.1187017632112884,33.0,71.0633,26.23,HELNES_FYR,53 years,898.0
320,NON00099370,0.4059555658489721,0.2057366744922776,0.07029959231137847,0.20460523368588895,0.3078988661803784,0.4114631868893523,0.4198338963659141,0.11914443947766905,0.332442800413319,0.10965497466084256,0.07910145519780462,0.11799150952834064,89.0,69.7255,29.8977,KIRKENES_LUFTHAVN,55 years,903.0
321,NON00099550,0.20039111415329994,-0.002223303480391291,0.3721787448501873,-0.19206645991050705,0.3593909788482572,0.43283542009205983,0.5899968892464819,0.452740049939826,0.1916336007683197,0.2786488243045402,0.3259964273898473,0.2189502959219065,8.0,69.6833,30.1333,SOR_VARANGER,54 years,905.0
322,NOXLT285749,0.1886006892060698,0.060076256354373726,0.4078083614342473,0.03465432810511673,0.379547076267056,0.20857988235709954,0.4954887985116305,0.45793336180231603,0.3308510823409751,0.4482503694730273,0.3627496491182887,0.247736646503837,9999.0,70.0,23.2,ALTA,68 years,907.0
323,NOXLT451881,0.24124854124266945,0.1637464640055416,0.41953148655029787,-0.07462443351628129,0.4153940887737565,0.2525503547023433,0.4152778747640453,0.2950014188256924,0.29280711607174154,0.4759431220100234,0.5878675108857606,0.2564117881142564,9999.0,65.6,12.3,BRONNOYSUND,85 years,909.0
324,NOXLT921787,0.3131408830730049,0.14788574982284838,0.2371059781791369,-0.026396632585223172,0.2895573367568638,0.22969791739205556,0.3563225592852741,0.4486702179043078,0.18314186522584874,0.4804039553686078,0.19992109370773087,0.2773526185028071,995.0,60.3,7.5,HAUGASTOL,92 years,913.0
325,RS000020357,0.28679188259638505,0.4267914288556157,0.4396986938268279,0.14887010930016525,0.3776691502928931,0.22198139436958236,0.11818312945746533,0.3185519134495153,0.2750575200761703,0.2346074741058893,0.2529245624416607,0.16011835668477475,9.0,76.183,63.567,RUSSKAYA_GAVAN,63 years,916.0
326,RS000020696,0.22384254254169347,0.4586348033564439,0.3849582302851034,-0.023610047432673312,0.265959392840895,0.4146324450248488,0.3844907650691328,0.28915239969406376,0.4776311670891311,0.4581642967399703,0.16546638717234335,0.4192283289373869,20.0,73.65,109.75,CAPE_KASISTY,51 years,917.0
327,RS000020766,0.3355144203240176,0.24412101878826356,0.36124699152041984,0.07772953316138126,0.2904761326832548,0.19725696407682056,0.0969879834558946,0.3103507059700455,0.4520804498000122,0.2993157311440932,0.28912502329015144,0.2681389218279247,10.0,72.333,79.5,LESKINO,59 years,918.0
328,RS000021405,0.28255702711597475,0.4533810129038274,0.4278752556697866,-0.12098371456572665,0.4427434142735681,0.3787398986505234,0.2612514069514428,0.3875961405965844,0.288009791811752,0.10418207610842099,0.2539618471971484,0.443362262902121,15.0,75.533,113.517,B_PRONCHISHCHEVOY,58 years,919.0
329,RS000021825,0.20653667218480448,0.4125548385590541,0.27079611480744,-0.02347111986501551,0.4824622008644301,0.5788722846067728,0.422405399695924,0.30350627524544643,0.4744311407195833,0.5411176264619797,0.4392335387990654,0.394293429553384,3.0,71.533,129.917,MOSTAKH_ISLAND,64 years,921.0
330,RSM00020046,0.858773209943234,0.7617680565701309,0.8381252678137254,0.6700661569461505,0.8282052623797302,0.9111953241232464,0.9060558666788724,0.9645485306596144,0.9921240985804664,0.9853232124067512,0.95877485435552,0.9254053738893576,22.0,80.6,58.0,POLAR_GMO_IMETKRENKELJ,63 years,923.0
331,RSM00020069,0.5409683612274798,0.6167681248736306,0.5576482457077397,0.3622544009150296,0.42155741680040504,0.5643065499156867,0.3705984436279777,0.38825971229159423,0.2666842351100265,0.4560357536870208,0.6627767147465201,0.7306529365785662,10.0,79.5,76.98,OSTROV_VIZE,76 years,924.0
